Regions,County,IP Name,Website URL,Site City,Description,Latitude,Longitude,Subcategories,Minor Categories,Image URL,Location
Capital-Saratoga,Albany County,74 State,http://www.74state.com,Albany,"Conveniently located on historic State Street in the heart of Albany's financial and legal districts and just steps away from the State Capitol. 74 State defines upscale lodging and sophisticated fine dining in the Capital Region. Intimate in scale, 74 State offers unyielding attention to the comfort and well-being of its guests and dining patrons comparable to the finest hotels in the world.  Audubon Greenleaf rated.",42.6493879,-73.7521756,Hotels & Motels,Hotels & Motels,,"(42.6493879, -73.7521756)"
Capital-Saratoga,Albany County,Abany Comfort Inn & Suites Wolf Road,http://www.daysinnalbany.com,Albany,"Outdoor pool, continental breakfast, HBO, Lodgenet Movies & Nintendo.",42.710471,-73.821243,Hotels & Motels,Hotels & Motels,,"(42.710471, -73.821243)"
Capital-Saratoga,Albany County,Albany Airport Courtyard by Marriott,http://www.marriott.com/albca,Albany,"Featuring spacious guestrooms, dual-line telephones with voicemail, data port, complimentary coffee, hair dryer, iron/board, complimentary high speed internet, Courtyard Cafe serving breakfast daily and The Market. Conveniently located near restaurants, malls, Albany International Airport (ALB) and 12 minutes to downtown Albany.",42.722109,-73.803955,Hotels & Motels,Hotels & Motels,,"(42.722109, -73.803955)"
Capital-Saratoga,Albany County,Albany Hilton Garden Inn Albany SUNY,http://www.albanysunyarea.stayhgi.com,Albany,"Located across from the Albany NanoTech Center and State University of New York (SUNY) Albany. This seven-story hotel is the tallest, most visible hotel on Washington Avenue. Just 5 mi northwest of downtown Albany, 5 mi south of Albany International Airport and the Wolf Road market area. It is adjacent to the interchange of Albany, I-90  and I-87. Within easy reach of the state capitol buildings, the Hudson River and other attractions. Shopping malls and numerous restaurants are nearby.",42.69,-73.82,Hotels & Motels,Hotels & Motels,,"(42.69, -73.82)"
Capital-Saratoga,Albany County,Albany Marriott Hotel (Wolf Rd),http://www.albanymarriott.com,Albany,"Just off exit 4 of Adirondack Northway I-87, convenient to airport, downtown, capital, SUNY & Saratoga.",42.720021,-73.804543,Convention Centers|Hotels & Motels,Convention centers|Hotels & Motels,,"(42.720021, -73.804543)"
Capital-Saratoga,Albany County,Albany Ramada Plaza,http://www.albanyramada.com,Albany,"A Mid-Town Albany Hotel near the Times Union Center. Discover a haven of modern elegance, and attentive service. With 216 rooms, the Albany Ramada offers all the amenities of a luxury hotel at a price that offers significant value. Our Capital District location offers easy access to Downtown Albany, and is a short ride from Lake George and Saratoga Springs.",42.680881,-73.783293,Hotels & Motels,Hotels & Motels,,"(42.680881, -73.783293)"
Capital-Saratoga,Albany County,Albany Thruway Courtyard by Marriott,http://www.marriott.com/albws,Albany,"Featuring spacious guestrooms & suites, dual-line telephones with voicemail, dataports, complimentary coffee, hair dryer, iron/board, complimentary high speed internet, Courtyard Cafe serving breakfast daily, and The Market located directly across from SUNY Albany, 5 minutes to downtown Albany and 5 miles to the Albany International Airport.",42.690688,-73.821257,Hotels & Motels,Hotels & Motels,,"(42.690688, -73.821257)"
Capital-Saratoga,Albany County,Altamont Old Stone House Inn,http://www.altamontinn.com,Albany,"18th century stone house situated on 2 acres, affording guests a quiet, retreat setting close to downtown Albany.  A full breakfast is served each morning.",42.64,-73.79,B&Bs & Country Inns,B&Bs & Country Inns,,"(42.64, -73.79)"
Capital-Saratoga,Albany County,Angel's Bed & Breakfast/Cafe,http://www.angelsbedandbreakfast.com,Albany,"A unique urban Inn located in the heart of Downtown Albany within walking distance to the Capitol, The Egg, the New York State museum and theatres.  This luxurious, intimate private home offers three individually decorated rooms located on the second floor and a cafe' on the first level. Built for John Stafford around 1811, and rehabilitated in 2003, it was known as a crown jewel of a gracious period of buildings in the early 19th century.  Angel's also offers Sunday brunch, catering and private function space.",42.72,-73.88,B&Bs & Country Inns,B&Bs & Country Inns,,"(42.72, -73.88)"
Capital-Saratoga,Albany County,Best Western Albany Airport Inn,http://www.bestwesternalbanyairport.com,Albany,"Free continental breakfast, restaurant & lounge, in-room coffee maker, hair dryer, iron/board, complimentary health club passes , and free HBO. Located near Albany's finest shopping and restaurants and about a half hour from Saratoga.",42.721164,-73.804092,Convention Centers|Hotels & Motels,Convention centers|Hotels & Motels,,"(42.721164, -73.804092)"
Capital-Saratoga,Albany County,Century House - A Clarion Hotel,http://www.thecenturyhouse.com,Latham,"The Clarion Hotel Century House & Restaurant is a unique blend of American tradition and charm with contemporary amenities.  We offer various sizes of meeting rooms and banquet rooms, 61 luxurious guest rooms, 3 suites and 4 extended stay apartments.  Unique 1/2 mile nature-jogging trail.  Family owned and operated for 56 years.  Audubon Greenleaf rated.",42.7707802,-73.7535958,Hotels & Motels,Hotels & Motels,,"(42.7707802, -73.7535958)"
Capital-Saratoga,Albany County,"Cocca's Inn & Suites, Route 7",http://www.coccas.com,Latham,"Featuring deluxe accommodations, beautiful, private Jacuzzi, honeymoon, and Executive suites. HBO, High Speed Internet Access.",42.76,-73.8,Hotels & Motels,Hotels & Motels,,"(42.76, -73.8)"
Capital-Saratoga,Albany County,"Cocca's Inn & Suites, Route 9",http://www.coccas.com,Latham,"Featuring deluxe accommodations, beautiful, private Jacuzzi, honeymoon, and Executive suites. HBO, High-speed internet access.",42.74,-73.76,Hotels & Motels,Hotels & Motels,,"(42.74, -73.76)"
Capital-Saratoga,Albany County,"Cocca's Inn & Suites, Wolf Rd",http://www.coccas.com,Albany,"Continental breakfast, featuring deluxe accommodations, and beautiful private Jacuzzi, honeymoon, and Executive suites.   Shopping and dining nearby. HBO, WiFi, high speed internet access.",42.71,-73.82,Hotels & Motels,Hotels & Motels,,"(42.71, -73.82)"
Capital-Saratoga,Albany County,Comfort Inn Albany Airport,http://www.comfortinn.com/hotel/ny408,Latham,"""Early Bird"" Complimentary Continental Breakfast, Park-n-Fly Program, Courtesy van to/from Airport, rooms with microfridge, hairdryer, iron/board, fitness room. All rooms free high speed internet access",42.754133,-73.816565,Hotels & Motels,Hotels & Motels,,"(42.754133, -73.816565)"
Capital-Saratoga,Albany County,Comfort Inn Glenmont,http://www.choicehotels.com/hotel/NY219,Glenmont,"Conference facilities. Air conditioned rooms, Non-smoking rooms available, TV",42.62296,-73.778193,Hotels & Motels,Hotels & Motels,,"(42.62296, -73.778193)"
Capital-Saratoga,Albany County,CrestHill Suites,http://www.cresthillsuites.com,Albany,Designed specifically with extended stay and frequent business travelers in mind. The suites feature spacious works areas and state-of-the-art technology. Free high speed internet connection.,42.69,-73.82,Hotels & Motels,Hotels & Motels,,"(42.69, -73.82)"
Capital-Saratoga,Albany County,Days Inn,http://daysinn.com,Albany,"Just minutes from downtown Albany, restaurants nearby. Standard rooms and spacious suites available, includes deluxe continental breakfast, high speed internet access, indoor pool and spa. Corporate and group rates available.",42.71791,-73.834318,Hotels & Motels,Hotels & Motels,,"(42.71791, -73.834318)"
Capital-Saratoga,Albany County,Days Inn Albany Guilderland,http://www.daysinn.com/hotel/13173,Albany,"Across from SUNY Albany, Free Continental Breakfast Bar.  4-mi. W. from Downtown Albany, Pepsi Arena & State Museum",42.677633,-73.828839,Hotels & Motels,Hotels & Motels,,"(42.677633, -73.828839)"
Capital-Saratoga,Albany County,Desmond Hotel & Conference Center,http://www.desmondhotels.com,Albany,"Old-world charm, state of the art conference technology and full-service banquet and meeting facilities.  18th century décor, exemplary service and classic colonial accommodation. 18th C charm & elegance of Colonial Williamsburg. Packages available for annual New Years Eve Festival. Many special events throughout the year.",42.7289592,-73.7976444,Convention Centers|Hotels & Motels,Convention centers|Hotels & Motels,http://fallgetaways.iloveny.com/d3k/mem/all/7871/1964.jpg,"(42.7289592, -73.7976444)"
Capital-Saratoga,Albany County,Econo Lodge,http://econolodge.com,Albany,"101 rooms, 13 rooms with jacuzzi's/cable TV, free HBO, Complimentary continental breakfast, free local calls, free coffee 24 hours, fitness center, meeting rooms, free parking.",42.718714,-73.836246,Hotels & Motels,Hotels & Motels,,"(42.718714, -73.836246)"
Capital-Saratoga,Albany County,"Econo Lodge, Glenmont",http://www.choicehotels.com/hotel/ny253,Glenmont,"Conveniently located, affordable rates and clean, comfortable roooms are all part of your stay with Choice Hotels.  We also offer high speed wireless internet access in our common areas, meeting space and sleeping rooms and a complimentary continental breakfast. Experience world class hospitality when you stay with us.",42.62,-73.78,Hotels & Motels,Hotels & Motels,,"(42.62, -73.78)"
Capital-Saratoga,Albany County,"Econo Lodge, Route 155",http://www.choicehotels.com/hotel/NY257,Latham,"Conference facilities, Health Club/Exercise room, Pets allowed, Outdoor Pool.  Air conditioned rooms and nonsmoking rooms available.",42.7372295,-73.7674897,Hotels & Motels,Hotels & Motels,,"(42.7372295, -73.7674897)"
Capital-Saratoga,Albany County,Extended Stay America Albany,http://www.extendedstayhotels.com,Albany,"We deliver the best in high quality, high value, low cost lodging for the Road Warrior.",42.69,-73.82,Hotels & Motels,Hotels & Motels,,"(42.69, -73.82)"
Capital-Saratoga,Albany County,Fairfield Inn by Marriott Albany SUNY,http://www.marriott.com/albfi,Albany,"Centrally located between airport and city of Albany, situated directly across from the SUNY Albany Campus on Washington Ave.",42.687532,-73.815035,Hotels & Motels,Hotels & Motels,,"(42.687532, -73.815035)"
Capital-Saratoga,Albany County,Governors Motor Inn,,Guilderland,"Air conditioned rooms available, kitchenettes available, TV in room available",42.711274,-73.925826,Hotels & Motels,Hotels & Motels,,"(42.711274, -73.925826)"
Capital-Saratoga,Albany County,Gregory House Inn,http://www.gregoryhouse.com,Averill Park,"Find personal attention to your travel needs and desires, combined with exceptionally comfortable beds, large rooms, and a fine dining restaurant at the Gregory House Country Inn and Restaurant. The Inn is located in the outskirts of Albany and Troy, New York in the small village of Averill Park.",42.635486,-73.563414,B&Bs & Country Inns,B&Bs & Country Inns,,"(42.635486, -73.563414)"
Capital-Saratoga,Albany County,Hampton Inn - Albany/Latham,http://www.hamptoninn.com,Cohoes,"126 room property consisting of kings and doubles. Free continental breakfast, free HBO and local phone calls.",42.76928,-73.7537416,Hotels & Motels,Hotels & Motels,,"(42.76928, -73.7537416)"
Capital-Saratoga,Albany County,Hampton Inn & Suites Albany Airport,http://www.albanyairportsuites.hamptoninn.com,Latham,"Accommodates business and leisure travelers with both rooms and suites. Two miles west of the Albany I'nal Airport, this state of the art facility is nestled in British American Airport Park, providing travelers with an easy transport to Albany County, City facilities and highway access to surrounding Clifton Park, Saratoga and Columbia counties. Minutes from businesses and sports arenas.",42.7257253,-73.7684116,Hotels & Motels,Hotels & Motels,,"(42.7257253, -73.7684116)"
Capital-Saratoga,Albany County,"Hampton Inn & Suites, Albany Downtown",http://www.hamptonsuitesalbany.com,Albany,"Features a total of 165 lavishly appointed guest rooms, including 35 suites with refrigerators and microwaves, 8 whirlpool suites, and one executive two room suite with a full kitchen all equipped with high speed wireless internet access. The 10-story structure features meeting facilities for up to 100 people and a friendly, professional staff with a “can-do” approach to hospitality.",42.6533739,-73.7515013,Hotels & Motels,Hotels & Motels,http://fallgetaways.iloveny.com/d3k/mem/all/8564/2109.jpg,"(42.6533739, -73.7515013)"
Capital-Saratoga,Albany County,"Hampton Inn, Wolf Road",http://www.albanywolfroad.hamptoninn.com,Albany,"Newly renovated, 2 Miles from Airport, free airport transportation, free hot breakfast buffet, convenient to shopping and business, Free WiFi, free local calls.",42.71,-73.82,Hotels & Motels,Hotels & Motels,,"(42.71, -73.82)"
Capital-Saratoga,Albany County,Hilton Garden Inn Albany Airport,http://www.hgialbany.com,Albany,Group friendly; closest to Albany International Airport yet surrounded by beautiful trees and lawns. Convenient to all major highways and attractions including Saratoga Springs.,42.73,-73.8,Hotels & Motels,Hotels & Motels,,"(42.73, -73.8)"
Capital-Saratoga,Albany County,Hilton Garden Inn at Albany Medical Center,http://www.albanymedicalcenter.hgi.com,Albany,"Conveniently located 1.25 miles from downtown Albany. Situated on the corner of New Scotland & Holland Avenues, the Hilton Garden Inn is within walking distance of Albany Law School, Albany College of Pharmacy, and Albany Medical College. Complimentary transportation is available upon request to the Albany International Airport, Amtrak and the Bus Station.",42.65,-73.78,Hotels & Motels|Restaurants,American|Hotels & Motels,,"(42.65, -73.78)"
Capital-Saratoga,Albany County,"Holiday Inn Albany, Wolf Road",http://www.hialbanywolf.com/,Albany,"Whether considering Albany hotels for an upcoming meeting, government business, a memorable Albany wedding or simply vacationing, make your destination the stylish Holiday Inn Albany. Conveniently located in suburban Albany, the Holiday Inn is close to many corporations.",42.7232627,-73.7974567,Convention Centers|Hotels & Motels,Hotels & Motels,,"(42.7232627, -73.7974567)"
Capital-Saratoga,Albany County,"Holiday Inn Express, Albany Downtown",http://www.hiealbanydowntown.com,Albany,"Conveniently located in historic downtown Albany near the Riverfront and Empire State Plaza and offering business and leisure travelers contemporary hotel accommodations. We provide a courtesy shuttle to and from the airport, train station, local businesses and attractions as well as the ONLY free on-site parking in downtown Albany!",42.645487,-73.750451,Hotels & Motels,Hotels & Motels,,"(42.645487, -73.750451)"
Capital-Saratoga,Albany County,"Holiday Inn Express, Albany University Area",http://www.hiexpress.com/albany-western,Albany,"Air conditioned rooms. Non-smoking rooms available, TV,  indoor pool and conference facilities. Free continental breakfast.",42.679011,-73.836563,Hotels & Motels,Hotels & Motels,,"(42.679011, -73.836563)"
Capital-Saratoga,Albany County,Holiday Inn Express & Suites / Conference Center,http://www.hielatham.com,Latham,"Our choice Latham accommodations are ideally located off I-87, just ten miles from downtown Albany and near many businesses and government offices. Travelers looking for lodging in Latham can enjoy a stay at our smoke free hotel near the Albany Airport, four universities and the famous Saratoga Race Course.",42.7641405,-73.7554663,Hotels & Motels,Hotels & Motels,,"(42.7641405, -73.7554663)"
Capital-Saratoga,Albany County,Holiday Inn Turf,http://www.holiday-inn.com/albany-wolfny,Albany,"Recently renovated featuring indoor & outdoor pools, Sauna, hot tub, full service resaturant & new Martini & Wine Bar. Over 20,000 sq. feet of meeting and banquet space. Less than 1 mile to NYS Thruway and Albany international.",42.7232627,-73.7974567,Convention Centers|Hotels & Motels,Convention centers|Hotels & Motels,,"(42.7232627, -73.7974567)"
Capital-Saratoga,Albany County,Homewood Suites by Hilton,http://www.albanyhomewoodsuites.com,Albany,"Complimentary hot/cold buffet breakfast;  Welcome home reception evening buffet style light meal Mon-Thurs, courtyard with BBQ area, basketball court, indoor pool, whirlpool, health club room, pets allowed, fully equipped kitchen, food shopping service and airport shuttle.",42.723662,-73.801485,Hotels & Motels,Hotels & Motels,,"(42.723662, -73.801485)"
Capital-Saratoga,Albany County,Hotel Indigo,http://www.ichotelsgroup.com/h/d/in/1/en/hotel/albil,LATHAM,"Sophisticated, Full-service hotel near the Albany International Airport (ALB), providing a complimentary shuttle to the airport. Our boutique hotel in Albany, NY is ideal for travelers who desire an oasis to escape from the ordinary, but value the traditional hospitality of a standard hotel.",42.7470225,-73.7590088,Hotels & Motels,Hotels & Motels,,"(42.7470225, -73.7590088)"
Capital-Saratoga,Albany County,Howard Johnson Inn,http://www.hojoalbany.com,Albany,95 unit with restaurant on premises. Plenty of truck parking and an outdoor pool.,42.72,-73.83,Hotels & Motels,Hotels & Motels,,"(42.72, -73.83)"
Capital-Saratoga,Albany County,La Perla,http://www.gregoryhouse.com,Averill Park,"You will find personal attention to your travel needs and desires, combined with exceptionally comfortable beds, large rooms, and a fine dining restaurant at the Gregory House Country Inn and Restaurant. The Inn is located in the outskirts of Albany and Troy,  in the small village of Averill Park.",42.635486,-73.563414,B&Bs & Country Inns|Restaurants,B&Bs & Country Inns|Italian,,"(42.635486, -73.563414)"
Capital-Saratoga,Albany County,LaQuinta Inn & Suites,http://www.LQ.com,Latham,"Located off the Latham Circle, 10 minutes from downtown Albany/ Airport.  Free high speed internet access & HBO.  Deluxe continental breakfast and Business Center- meeting room.  King Jacuzzi Suites, hair dryers, coffee makers, microfridge and iron.",42.75,-73.76,Hotels & Motels,Hotels & Motels,,"(42.75, -73.76)"
Capital-Saratoga,Albany County,La Quinta Inn & Suites Albany Airport,http://www.laquintaalbanyairport.com,Latham,"78 rooms, 16 suites with an indoor pool and jacuzzi. Fitness room, business center, lobby with fireplace and a hot breakfast. Suites with jacuzzi in rooms. Amenities include coffee maker, in-room safe, iron and ironing board, refrigerator and microwave.",42.75,-73.76,Hotels & Motels,Hotels & Motels,,"(42.75, -73.76)"
Capital-Saratoga,Albany County,Mansion Hill Inn & Restaurant,http://www.mansionhill.com,Albany,"Albany Mansion Hill Inn & Restaurant,  Albany County AAA approved historic 3 Diamond bed & breakfast, inn & restaurant. Eight room inn and fine dining restaurant.",42.644696,-73.760063,B&Bs & Country Inns|Restaurants,American|B&Bs & Country Inns,,"(42.644696, -73.760063)"
Capital-Saratoga,Albany County,Microtel Inn,,Latham,"Complimentary Breakfast, Conference facilities. AC, cable/satellite TV, nonsmoking rooms available. Wheelchair accessible rooms available.  Wifi, high-speed wireless  internet free.  Free local & long distance call in Continental US.",42.752576,-73.7714529,Hotels & Motels,Hotels & Motels,,"(42.752576, -73.7714529)"
Capital-Saratoga,Albany County,Monte Mario Motel,,Latham,"Full service motel, centraly located near shopping, and Albany. 65 rooms",42.75,-73.77,Hotels & Motels,Hotels & Motels,,"(42.75, -73.77)"
Capital-Saratoga,Albany County,"Morgan State House, The",http://www.statehouse.com,Albany,"Voted ""Best in the Capital/Saratoga Region"" as an Inn, in the European Tradition. Our location in the heart of the city is ideal for introducing the history of downtown Albany.",42.656951,-73.765697,B&Bs & Country Inns,B&Bs & Country Inns,http://fallgetaways.iloveny.com/d3k/mem/all/3982/1262.jpg,"(42.656951, -73.765697)"
Capital-Saratoga,Albany County,Motel 6,http://www.motel6.com,Albany,"Motel 6 began the concept of a nationwide economy chain -- where travelers can find consistent quality at the best price of any national, brand-name lodging company. Well behaved pets under 70 lbs accepted. Data ports.",42.678984,-73.782529,Hotels & Motels,Hotels & Motels,,"(42.678984, -73.782529)"
Capital-Saratoga,Albany County,Motel 6,http://www.motel6.com,ALBANY,"Motel 6 is a major chain of budget motels with more than 1000 locations in the United States and Canada, and is the largest owned and operated hotel chain ...",42.7175514,-73.8328676,Hotels & Motels,Hotels & Motels,,"(42.7175514, -73.8328676)"
Capital-Saratoga,Albany County,Quality Inn - Central,http://www.qualityinn.com/hotel/ny120,Albany,"Located 3 miles from the Albany International Airport. This interior corridor, 2 story hotel is just minutes from the State Capital, Pepsi Arena, Empire State Plaza and Shopping Centers. we offer Free: Deluxe Continental breakfast, WiFi throughout and HBO.",42.719591,-73.836053,Hotels & Motels,Hotels & Motels,,"(42.719591, -73.836053)"
Capital-Saratoga,Albany County,"Quality Inn & Suites, Albany Airport",http://www.choicehotel.com/hotel/ny024,Latham,"Welcome reception, hospitality room, deluxe continental breakfast, traditonal rooms and deluxe suites with pull-out sofa. All rooms equipped with wireless internet, data ports, refrigerators, microwaves, coffee machines, iron/board and hair dryer. Shopping and theatre only 1/4 mile, shuttle Service to Albany International Airport.",42.7538081,-73.7703798,Hotels & Motels,Hotels & Motels,,"(42.7538081, -73.7703798)"
Capital-Saratoga,Albany County,Red Carpet Inn,http://www.redcarpetinnalbany.com,Albany,"Located 1/2 mile from exit 6, I-90, with easy access to Pepsi Arena & other downtown attractions.",42.672105,-73.750872,Hotels & Motels,Hotels & Motels,,"(42.672105, -73.750872)"
Capital-Saratoga,Albany County,Red Carpet Inn & Suites,http://www.bookroomsnow.com,Albany,"66 rooms across from SUNY Albany, state offices, minutes from downtown Albany, airport, Empire State Plaza, meeting facilities, 24 hr. coffee available.",42.69,-73.82,Hotels & Motels,Hotels & Motels,,"(42.69, -73.82)"
Capital-Saratoga,Albany County,Red Roof Inn,http://www.redroof-albany.com,Albany,"Close to SUNY Albany, Empire State Plaza, Saratoga Performing Arts Center & Raceway.",42.723526,-73.80171,Hotels & Motels,Hotels & Motels,,"(42.723526, -73.80171)"
Capital-Saratoga,Albany County,Regency Inn,,Albany,"Fully renovated, 5 minutes from airport. Conference facilities, Outdoor pool, Cable/satellite TV, Direct dial phone in room.",42.713433,-73.826949,Hotels & Motels,Hotels & Motels,,"(42.713433, -73.826949)"
Capital-Saratoga,Albany County,Regency Inn & Suites,,Albany,"Our hotel is located within minutes of downtown Albany and many major attractions as well as historical sites and all major shopping centers. We offer complimentary breakfast, health club privileges. Available are meeting rooms as well as our Jacuzzi suites. Pets are welcome.",42.628165,-73.7767456,Hotels & Motels,Hotels & Motels,,"(42.628165, -73.7767456)"
Capital-Saratoga,Albany County,Residence Inn by Marriott,,Latham,All suites hotel with full size living area and fully equipped kitchen.,42.77,-73.82,Hotels & Motels,Hotels & Motels,,"(42.77, -73.82)"
Capital-Saratoga,Albany County,Scottish Inns,http://www.bookroomsnow.com,Albany,"Newly renovated 31 rooms. 25 inch cable TV, HBO, hair dryer, special corporate, government, extended rates.",42.7,-73.82,Hotels & Motels,Hotels & Motels,,"(42.7, -73.82)"
Capital-Saratoga,Albany County,SpringHill Suites by Marriott,http://www.springhillsuites.com,ALBANY,SpringHill Suites by Marriott: Style and space. Beautifully priced.,42.703667,-73.8152719,Hotels & Motels,Hotels & Motels,,"(42.703667, -73.8152719)"
Capital-Saratoga,Albany County,"Super 8 Latham/Albany, Troy Area",,Latham,"Complimentary superstart breakfast. AC, Cable/satellite TV, Modem connection. Non-smoking rooms available. Wheelchair accessible rooms available.High speed wireless internet access available.",42.7556664,-73.7746736,Hotels & Motels,Hotels & Motels,,"(42.7556664, -73.7746736)"
Capital-Saratoga,Albany County,Super 8 Motel,http://www.super8.com,Albany,"AC, non-smoking rooms available and TV.",42.716685,-73.8302719,Hotels & Motels,Hotels & Motels,,"(42.716685, -73.8302719)"
Capital-Saratoga,Albany County,The Green Park Inn & Conference Center,http://www.greenparkinns.com,ALBANY,Renovated rooms and conference facility for up to 150 people. Restaurant/lounge on premise.,42.713433,-73.826949,Hotels & Motels,Hotels & Motels,,"(42.713433, -73.826949)"
Capital-Saratoga,Albany County,The Inn on South Lake,http://www.theinnonsouthlake.com,Albany,"A comfortable, urban Bed & Breakfast housed in an 1890s era home that blends Mission-style influences with modern amenities.  Includes daily continental breakfast, free local telephone calls and free wireless internet access.  Walk to the Capitol, the Empire State Plaza, area colleges and medical centers.  Convenient location and easy accessibility.  Off-street parking available.",42.65,-73.78,B&Bs & Country Inns,B&Bs & Country Inns,,"(42.65, -73.78)"
Capital-Saratoga,Albany County,Thompson's Lake State Park,http://www.nysparks.com,Voorheesville,"Nestled in mountains 4-mi. from Helderberg Escarpment. Camping, sandy beach, volleyball court, horseshoe pits, playing field, swingsets, carry-in boat access, rental row boats, fishing, nature trails. Interpretive and recreational programs. 18 miles SW of Albany.",42.653967,-73.9287365,Camping|Land Adventures|Nature|Snow Adventures|Water Adventures,Beaches|Camping|Fishing|Hiking|Houseboat rentals|Kayaking / Canoeing|Nature Centers|Public Campgrounds|Skiing (XC)|State parks,,"(42.653967, -73.9287365)"
Capital-Saratoga,Albany County,TownePlace Suites by Marriott Albany Downtown/Medical Center,http://www.tpsalbanydowntownmedcenter.com,Albany,"Free continental breakfast buffet, 27"" flat screen TVs in the room. Centrally located between Airport & city of Albany, situated directly across from SUNY Albany campus on Washington Ave.",42.687089,-73.814257,Hotels & Motels,Hotels & Motels,,"(42.687089, -73.814257)"
Capital-Saratoga,Albany County,"TownePlace Suites by Marriott, SUNY",http://www.marriott.com/albta,Albany,"Perfect location when traveling to Albany for business, relocation, or pleasure. We make corporate housing easy and convenient. Only minutes to most everything. The Albany NanoCollege is a minute drive which houses highly visited companies such as Sematech, IBM, Sony, Tokyo Electron, ASML, and many others within the growing Albany Tech Valley.",42.687089,-73.814257,Hotels & Motels,Hotels & Motels,,"(42.687089, -73.814257)"
Capital-Saratoga,Albany County,Travelodge Inn & Suites (Cocca's),http://www.coccas.com,Latham,"Featuring deluxe accommodations, and beautiful, private Jacuzzi, honeymoon, and Executive suites. Great dining options nearby. The Loudon Room, banquets facility & meetings seat up to 200. HBO, High Speed Internet Access, WiFi.",42.75,-73.76,Hotels & Motels,Hotels & Motels,,"(42.75, -73.76)"
Capital-Saratoga,Albany County,Wingate Inn,,Latham,"Complimentary deluxe breakfast buffet, Calaway Grill Restaurant (casual attire), short drive to downtown Albany & Saratoga.",42.7290821,-73.7958997,Hotels & Motels,Hotels & Motels,,"(42.7290821, -73.7958997)"
Chautauqua-Allegheny,Allegany County,37 Park Circle B&B,http://www.37parkcircle.com,Angelica,"1819 Greek revival house with two bright, floor-size apartments in historic Angelic.  Nearby forest trails, streams, country roads, golf courses and many more outdoor activities.",42.305279,-78.016127,Vacation Rentals,Vacation Rentals,,"(42.305279, -78.016127)"
Chautauqua-Allegheny,Allegany County,All Adventures Campground,http://www.alladventurescampground.com,FRIENDSHIP,"Scenic campground w/spacious and comfortable grounds; swimming pools, volleyball, fishing, horeshoe pits and basketball, stream w/vintage railroad trestle and wading pools.",42.2011178,-78.1451413,Camping,Camping,,"(42.2011178, -78.1451413)"
Chautauqua-Allegheny,Allegany County,Backroads Cabin Rental,,Belmont,"Modern electrical and bath conveniences, wood heating, pond, 1000s of acres of state forests; biking, hiking, horseback, and skiing trails; hunting, camping and snowmobiling.",42.270402,-77.877661,Cabins & Cottages,Cabins & Cottages,,"(42.270402, -77.877661)"
Chautauqua-Allegheny,Allegany County,Breezy Point Campsite,http://www.breezypointcampground.com/,Scio,"Family oriented. Boating, fishing, swimming, Round/square dancing, putt-putt golf.",42.18,-77.98,Camping,Privately-owned Campgrounds,,"(42.18, -77.98)"
Chautauqua-Allegheny,Allegany County,Budget Inn,http://www.wellsvilleinn.com,WELLSVILLE,"Newly renovated, cozy rooms located in the heart of scenic Allegany County in historic Wellsville; rv, bus, & truck parking; smoking & non-smoking rooms available; choice of queen, king, full size beds",42.133093,-77.916571,Hotels & Motels,Hotels & Motels,,"(42.133093, -77.916571)"
Chautauqua-Allegheny,Allegany County,Country Barn B & B Retreat,http://sites.google.com/site/countrybarnbandb,ALMOND,"Home that sleeps 6 in Almond, NY",42.3147848,-77.7420773,B&Bs & Country Inns,,,"(42.3147848, -77.7420773)"
Chautauqua-Allegheny,Allegany County,Country Cabin Manor,http://www.countrycabinmanor.com,Alfred Station,"Log home, Full Breakfast, whirlpool, A/C, internet, TV, VCR/DVD, in room phones, 3 mins to A.U. and ASC, no smoking or pets, no small children.",42.26,-77.8,B&Bs & Country Inns,B&Bs & Country Inns,,"(42.26, -77.8)"
Chautauqua-Allegheny,Allegany County,Cuba Econo Lodge,http://www.econolodge.com/hotel-cuba-new_york-NY313,Cuba,"Comfortable, clean accommodations with beautiful views of historic Cuba, NY.  Easy access to Rt. I-86.  Cable TV, coffee & donuts.  All units computer compatible. Free high speed wireless internet, rooms have refrigerators, microwaves, hair dryers, Free local calls.",42.226062,-78.2679331,Hotels & Motels,Hotels & Motels,,"(42.226062, -78.2679331)"
Chautauqua-Allegheny,Allegany County,Cuba Lakefront Home,http://www.vrbo.com/304549,CUBA,"Beautiful 4bdrm/2ba lakefront house with gorgeous views on Cuba Lake;  open floor plan;  kitchen, dining area, living room; double lot with plenty of space and privacy; 2 porches with fantastic views; 1 queen bed, 6 twin beds; gas/electric bbq grill.",42.2418412,-78.2738191,Vacation Rentals,Vacation Rentals,,"(42.2418412, -78.2738191)"
Chautauqua-Allegheny,Allegany County,"""East of Eden"" Lakefront Rental",http://www.vrbo.com/56143,CUBA,"Relaxing lakefront retreat with 4 bedrooms, 1 bath, full kitchen, living room w/fireplace, laundry room, screened in front porch, and a den on Cuba Lake; gas grill, charcoal grill, firepit",42.2502486,-78.2917472,Vacation Rentals,Vacation Rentals,,"(42.2502486, -78.2917472)"
Chautauqua-Allegheny,Allegany County,Economy Inn,http://www.economyinn.com,Alfred Station,"Newly remodeled rooms, 24 hr. front desk, lower weeklly rates. Free high-speed internet access, cable TV, fax and copy service, refrigerators, microwaves and hairdryers. AC rooms.",42.2650585,-77.8014551,Hotels & Motels,Hotels & Motels,,"(42.2650585, -77.8014551)"
Chautauqua-Allegheny,Allegany County,Evergreen Trails Campground,http://www.evergreentrails.com,Angelica,"Authentic log cabins, (sleeps 2-8 people), 2 fishing ponds, 5 miles of hiking trails, woodland trails, horseshoes, lodge, store. In celebration of butterflies and quiet, quality family camping.  Near Letchworth State Park.",42.366233,-78.015264,Cabins & Cottages|Camping,Cabins & Cottages|Privately-owned Campgrounds,,"(42.366233, -78.015264)"
Chautauqua-Allegheny,Allegany County,Houghton Letchworth KOA,http://www.mariposaponds.com,Houghton,"Quiet, family camping, wooded & open sites. Butterfly gardens, indoor pool, fishing pond, nature trails, horseshoes, volleyball, basketball, and playgrounds.  Cabin & RV camper rental.",42.4322178,-78.1594061,Camping,Privately-owned Campgrounds,,"(42.4322178, -78.1594061)"
Chautauqua-Allegheny,Allegany County,"Inn at Houghton Creek, The",http://www.innathoughtoncreek.com,Houghton,Distinctive country lodging in the quiet town of Houghton and within walking distance of Houghton College and Houghton Academy.  Sitting area w/fireplace; free use of College pool and phys. ed. center.,42.4241552,-78.1585907,Hotels & Motels,Hotels & Motels,,"(42.4241552, -78.1585907)"
Chautauqua-Allegheny,Allegany County,Lake Lodge Camping,,Alfred,"Lake swimming, hiking, fishing, rec room, laundry, horseshoes, volleyball, close to campus, banquet facilities, conferences and weddings, pets allowed (Leash, pick up after)",42.2632777,-77.7861519,Camping,Privately-owned Campgrounds,,"(42.2632777, -77.7861519)"
Chautauqua-Allegheny,Allegany County,Lakeview Bed & Breakfast,http://www.lakeviewbednbreakfast.com,Caneadea,"Located 18 mi. from Letchworth State Park, the inn offers breathtaking views of Rushford Lake.",42.39,-78.19,B&Bs & Country Inns,B&Bs & Country Inns,,"(42.39, -78.19)"
Chautauqua-Allegheny,Allegany County,Long Vue Inn and Suites,,Wellsville,"AAA approved, the best view setting in town, free cont'l breakfast, AC, TV, VCR, Movies, phone, refrigerators, microwaves, coffeemakers, computer access, spotlessly clean, quiet large rooms.",42.1159891,-77.9416706,Hotels & Motels,Hotels & Motels,,"(42.1159891, -77.9416706)"
Chautauqua-Allegheny,Allegany County,Maple Lane RV and Campground Park,,Cuba,"Vending machine, coin-operated laundry, full restroom (handicap), barbecue pits, picnic tables, winter storage available, one mile south of Cuba Lake, 1/4 mile north of I-86, nature trail",42.2272827,-78.2778775,Camping,Privately-owned Campgrounds,,"(42.2272827, -78.2778775)"
Chautauqua-Allegheny,Allegany County,McCarthy's Ranch Campground,,ANGELICA,"Enjoy the beautiful hills of Allegany County outside of historic, quaint Angelica while camping at McCarthy's Ranch Campground.  Open and wooded sites, recreation hall, LP gas, luandry, and camp store.",42.4019192,-77.971493,Camping,Privately-owned Campgrounds,,"(42.4019192, -77.971493)"
Chautauqua-Allegheny,Allegany County,Microtel Inn & Suites,http://www.microtelinn.com/MicrotelInn/control/Booking/check_avail?advancedSearch=false&entry_source,Wellsville,"Free high speed wireless internet, free local and long distance calls (within continental US). Free continental breakfast. Expanded cable with HBO pay per-view-movies. Suites have living area, fridge, microwave, coffeemaker and laundry.",42.1220124,-77.9480575,Hotels & Motels,Hotels & Motels,,"(42.1220124, -77.9480575)"
Chautauqua-Allegheny,Allegany County,"Mother's ""Pickin Chickin"" Lodge & Campground",,Belmont,"Center of Allegany County; hunting, hiking, fishing, atv, x-country skiing, snow modiling; newly remodeled lodge w/legal beverages; ""fingerpickin' good bluegrass"" and BBQ;  fun atmosphere, darts, pool table, etc.",42.2059448,-78.0039902,Camping,Privately-owned Campgrounds,,"(42.2059448, -78.0039902)"
Chautauqua-Allegheny,Allegany County,Mountainside Inn,http://www.swain.com/stay-at-swain,SWAIN,"Swain Ski Resort lodging, eight private one and two bedroom suites with kitchen and living room.",42.477958,-77.850053,Cabins & Cottages|Stay,Cabins & Cottages,,"(42.477958, -77.850053)"
Chautauqua-Allegheny,Allegany County,Mustard Seed Inn and Bed & Breakfast,http://www.mustardseedinn.webs.com/,Andover,The Mustard Seed Inn and B&B is a private guesthouse and suite located in a small village setting with friendly innkeepers attentive to assist with every need.,42.16,-77.77,B&Bs & Country Inns,B&Bs & Country Inns,,"(42.16, -77.77)"
Chautauqua-Allegheny,Allegany County,Oramel Inn,http://oramelinn.com,CANEADEA,"Recently renovated and upgraded, vouchers for adjacent cafe located on the banks of the Genesee River.",42.3642219,-78.1341057,Hotels & Motels,Hotels & Motels,,"(42.3642219, -78.1341057)"
Chautauqua-Allegheny,Allegany County,Pollywogg Holler Eco-Resort,http://www.pollywoggholler.com,Belmont,"Named for the serenade of frogs that fills the evening air.  Pollywogg Holler is a Great Camp-style eco-resort established by the Castle family in 1987.  The genius of nature and man are showcased in a setting of spectacular beauty, Adirondack-style craftsmanship, solar electricity, organic gardening, and gravity fed spring water.",42.2235921,-78.0345719,Cabins & Cottages,Cabins & Cottages,,"(42.2235921, -78.0345719)"
Chautauqua-Allegheny,Allegany County,Riverside Park Campground,http://www.riversidepark-campground.com/,Wellsville,Family owned and operated located on the east bank of the Genesee River.,42.1530297,-77.9764488,Camping,Privately-owned Campgrounds,,"(42.1530297, -77.9764488)"
Chautauqua-Allegheny,Allegany County,Rushford Lake Cottage Rentals,http://www.rushfordcottagerentals.com/,RUSHFORD,"3 lovely cottages and 1 premium lakeside cottage available for vacation rentals on the west side of Rushford Lake; within 200 yards of lake; picnic tables, propane grill, and outdoor fire pit at all sites.",42.3821954,-78.1934911,Cabins & Cottages,Cabins & Cottages,,"(42.3821954, -78.1934911)"
Chautauqua-Allegheny,Allegany County,Rushford Lakefront Vacation Rental,http://www.vrbo.com/23346,RUSHFORD,"Relax on the lake in this 2 bedroom (plus convertible beds), 1 bath lakefront cottage on Rushford Lake; available for summer or winter. Fireplace, linens provided, bbq grill, lakefront deck, canoe and dock.",42.3821954,-78.1934911,Vacation Rentals,Vacation Rentals,,"(42.3821954, -78.1934911)"
Chautauqua-Allegheny,Allegany County,Rushford Lake Vacation Rental,http://www.vrbo.com/249347,RUSHFORD,"Enjoy vacation on the north side of Rushford Lake with a stay in this quaint three bedroom cottagage with modern bath and large eat in kitchen.  Watch the water, sunrises and sunsets from the living room or the side deck.  Canoe, Kayak and BBQ grill provided.",42.39222,-78.25389,Vacation Rentals,Vacation Rentals,,"(42.39222, -78.25389)"
Chautauqua-Allegheny,Allegany County,Saxon Inn,http://www.saxoninnhotel.com/index.html,Alfred,Distinctive lodging at historic Alfred University.  Offers guests the best in fine accommodations and attention to service.,42.2524873,-77.7888808,Hotels & Motels,Hotels & Motels,,"(42.2524873, -77.7888808)"
Chautauqua-Allegheny,Allegany County,Six-S Camping and RV,http://www.go2waterways.com,Belfast,"Golf, Power carts, restaurant, shower, fishing, located across from golf course.",42.296155,-78.074923,Camping,Privately-owned Campgrounds,,"(42.296155, -78.074923)"
Chautauqua-Allegheny,Allegany County,Sunny Hill Campsite,,Richburg,"Two ponds-one fishing, two playgrounds, swimming pool, frisbee, golf, two rec rooms, volleyball, hiking trails, showers, square dancing floor available, no cabins. Pets allowed (leash and pick up after).",42.0892983,-78.171155,Camping,Privately-owned Campgrounds,,"(42.0892983, -78.171155)"
Chautauqua-Allegheny,Allegany County,The Farmstay at Greenwood Hill Farm,http://farmstay.greenwoodhill.com/index.html,ANDOVER,"Experience life on the farm through agrotourism; share a farm house with a loving family, participate in daily farm activities, or kick back and enjoy 125 acres of beautiful hill-top acres of fields and woodlands.  Fresh home-cooked meals also available",42.150682,-77.73487,Farms,Farms,,"(42.150682, -77.73487)"
Chautauqua-Allegheny,Allegany County,The Granary,http://catbirdgriddle.blogspot.com/p/granary.html,ANGELICA,100 year old granary converted to a charming summer cottage on a 120 acre farm.  Offers a fenced in side yard for pets.,42.3204602,-77.9506708,Cabins & Cottages,Cabins & Cottages,,"(42.3204602, -77.9506708)"
Chautauqua-Allegheny,Allegany County,The Ponderosa House Rental,http://www.findrentals.com/40872,BELMONT,"House located in beautiful scenic Allegany County sleeps up to 11, 5 private acres of peace and quiet;  built with wood from the trees surrounding the property and 15 minutes from Alfred State College & Alfred University",42.270402,-77.877661,Vacation Rentals,Vacation Rentals,,"(42.270402, -77.877661)"
Chautauqua-Allegheny,Allegany County,Water Front Lake House,http://www.vrbo.com/360351,RUSHFORD,"Beautiful modern lake house in a relaxed setting.  Enjoy dinner on the large covered deck while listening to the rush of a nearby waterfall.  Three bedroom and three full bath.  Full kitchen and bbq grill.  Room to dock your boat or jet skis and a water slide for kids, or young at heart.  Washer/dryer",42.3821954,-78.1934911,Vacation Rentals,Vacation Rentals,,"(42.3821954, -78.1934911)"
Chautauqua-Allegheny,Allegany County,Wellspring Nature Center Retreat and Inn,http://www.wellspringinn.com,Wellsville,"Private suites, walking trails, Labyrinth, small pond with picnic area.  Built to reconnect you to nature, rest your spirit, and rejuvenate your body and soul.",42.06,-77.93,Cabins & Cottages,Cabins & Cottages,,"(42.06, -77.93)"
Chautauqua-Allegheny,Allegany County,Whitesville House Hotel,http://www.whitesvillehouse.com,WHITESVILLE,1826 historic remodeled hotel w/6 comfortable guest rooms connected to the restaurant/tavern; hunters & fishermen welcome.,42.0373329,-77.766086,Hotels & Motels,Hotels & Motels,,"(42.0373329, -77.766086)"
Chautauqua-Allegheny,Allegany County,Willard's Country Place,,Caneadea,"150 acres of woods, fields, ponds, hiking trails, family campground. Hay rides, catch and release fishing, skiing, snowmobiling and tubing hill in winter.",42.3484429,-78.1607169,,Privately-owned Campgrounds,,"(42.3484429, -78.1607169)"
Chautauqua-Allegheny,Allegany County,Willard's County Place Campground,http://www.willardscountryplace.com,CANEADEA,"Family owned and operated campgroud with cabins, a lodge, RV hookups, and tent sites, located on 150+ acres in the beautiful hills & valleys of Allegany County.  The grounds include trails, streams, wooded areas, open fields and ponds for your enjoyment and relaxation.  The bed & breakfast is located in our century-old farmhouse.",42.3591319,-78.1506649,B&Bs & Country Inns|Cabins & Cottages|Camping,B&Bs & Country Inns|Cabins & Cottages|Camping,,"(42.3591319, -78.1506649)"
Chautauqua-Allegheny,Allegany County,Windy Hill Campground,,Houghton,"Hiking, ponds, fishing, game room, pets allowed (leash and pick up after). Camp store, tables, hot showers, dump station.  Playground.",42.429834,-78.2634441,Camping,Privately-owned Campgrounds,,"(42.429834, -78.2634441)"
New York City,Brooklyn,"Avenue Plaza Hotel, The",http://www.theavenueplaza.com,Brooklyn,"Full-service luxury hotel at low prices, decorated with old-world charm. Close to airports, business centers, shopping, hospitals, 20 min. to Manhattan, near to all forms of transportation.",40.636264,-73.990881,Hotels & Motels,Hotels & Motels,,"(40.636264, -73.990881)"
New York City,Brooklyn,Baisley House,http://www.virtualcities.com/ons/ny/n/nyn1901.htm,Brooklyn,"Restored, 1853 Victorian Brownstone row house. Owner is a culinary artist, interior decorator and award-winning garden designer.",40.681227,-73.9915709,B&Bs & Country Inns,B&Bs & Country Inns,,"(40.681227, -73.9915709)"
New York City,Brooklyn,Best Western Gregory Brooklyn,http://www.bestwestern.com/gregoryhotel,Brooklyn,"Located in scenic Bayridge, our boutique hotel is only 7 miles from Manhattan & within walking distance to restaurants, bars, entertainment and shopping.",40.624312,-74.027328,Hotels & Motels,Hotels & Motels,,"(40.624312, -74.027328)"
New York City,Brooklyn,Best Western Plus Arena Hotel,http://www.arenahotelnyc.com,BROOKLYN,"Welcome to Best Western Plus Arena Hotel, an exciting new choice in downtown Brooklyn hotels.  We proudly treat you to the lodging experience you want: modern amenities, well-appointed rooms, straightforward service and all at a price you can afford.",40.6783074,-73.9485909,Hotels & Motels,Hotels & Motels,,"(40.6783074, -73.9485909)"
New York City,Brooklyn,Brooklyn Motor Inn,http://www.brooklynmotorinn.com,BROOKLYN,"Welcome to Brooklyn Motor Inn, the exciting new choice in affordable Brooklyn hotels.  We pride ourselves on the utmost in hospitality and comfort for New York City travelers who want to avoid steep Manhattan prices.",40.6815614,-74.0061139,Hotels & Motels,Hotels & Motels,,"(40.6815614, -74.0061139)"
New York City,Brooklyn,Foy House,,Brooklyn,This Edwardian house is located minutes from the train station and walking distance of many of Brooklyn's key attractions.,40.7,-73.96,B&Bs & Country Inns,B&Bs & Country Inns,,"(40.7, -73.96)"
New York City,Brooklyn,Galaxy Motel,,Brooklyn,A/C with TV in rooms.,40.6565724,-73.8892264,Hotels & Motels,Hotels & Motels,,"(40.6565724, -73.8892264)"
New York City,Brooklyn,Golden Gate Motor Inn,,Brooklyn,"A/C, cable TV with conference facilities available. Outdoor pool and near, golf, beach boating, fishing and horseback riding.",40.5863832,-73.9324794,Hotels & Motels,Hotels & Motels,,"(40.5863832, -73.9324794)"
New York City,Brooklyn,Greenpoint YMCA,http://www.ymcanyc.org,Brooklyn,"Located 20 minutes from New York City's  attractions. Clean, safe and professional environment.",40.727005,-73.9531682,Hostels,Hostels,,"(40.727005, -73.9531682)"
New York City,Brooklyn,Homestay New York,http://www.homestayny.com,Brooklyn,"Affordable lodging in fine Brooklyn homes for international tourists, breakfast and an information pack with metro card.",40.635211,-73.959742,B&Bs & Country Inns,B&Bs & Country Inns,,"(40.635211, -73.959742)"
New York City,Brooklyn,Hotel Le bleu,http://www.hotellebleu.com,Brooklyn,"Designer hotel, reflects complete sophistication, luxurious rooms, roof restaurant & lounge.  Balconies, views of NYC, plush bedding, mini-bar, safe.  Enjoy 42"" HD tv, wave sound and dvd system.  IPod dock, robe, botanicals included.",40.67,-73.99,Hotels & Motels,Hotels & Motels,,"(40.67, -73.99)"
New York City,Brooklyn,Hotel Le Jolie,http://www.hotellejolie.com,BROOKLYN,"Welcome to Hotel Le Jolie, an inspired voice amongst boutique Brooklyn hotels.  We blend precise European hospitality and the evocative charm of NYC for an uncommon stay.  We have built a trusted reputation with leisure, business and international travelers.",40.7165263,-73.950779,Hotels & Motels,Hotels & Motels,,"(40.7165263, -73.950779)"
New York City,Brooklyn,New York Marriott at Brooklyn Bridge,http://www.marriotthotels.com/nycbk/,Brooklyn,"Brooklyn's only major luxury hotel. Located in downtown Brooklyn, minutes from Manhattan. Oversized guest rooms. One of NY's largest ballrooms. Cable, in-room movies,  two-line phones. Business center, restaurant, lounge, room service, valet. On site parking 1100 car capacity. Overnight charges $15 sun-thurs. $10 fri-sat.",40.6937357,-73.9884833,Hotels & Motels,Hotels & Motels,,"(40.6937357, -73.9884833)"
New York City,Brooklyn,The Box House Hotel,http://www.theboxhousehotel.com,BROOKLYN,"The Box House Hotel features loft suites with queen size beds and pull out sofas. Full kitchens, Apple TV, and /or 42"" plasma TV, and wifi throughout. Some of the lofts have terraces and decks with views of Brooklyn and New York City.",40.7375305,-73.9532465,Hotels & Motels,Hotels & Motels,,"(40.7375305, -73.9532465)"
New York City,Brooklyn,Westpark Hotel,http://www.westparkhotel.com,New York,Offering unique newly refurbished guest rooms and suites in a European-style boutique hotel. In-room safes.,40.767487,-73.983202,Hotels & Motels,Hotels & Motels,,"(40.767487, -73.983202)"
Central New York,Broome County,Belden Hill Campground,,Harpursville,"Quiet wooded and open sites. Camp store, laundry.  Playground, rec. building, fishing, swimming.",42.1985808,-75.695515,Camping,Privately-owned Campgrounds,,"(42.1985808, -75.695515)"
Central New York,Broome County,Best Western of Johnson City,http://www.bestwestern.com,Johnson City,"All inside access. Continental breakfast. Computerized keyless locks. Health Club with pool.  Adjacent to restaurants and large mall.  HBO 1,2 & 3. Lounge.",42.125316,-75.969549,Hotels & Motels,Hotels & Motels,,"(42.125316, -75.969549)"
Central New York,Broome County,Chenango Valley State Park,http://www.nysparks.com,Chenango Forks,"Ice age wonder with two lakes, Lily and Chenango, that were created when a glacier melted. Bird watching, fishing, camping, golf. Ice skating, sledding & XC skiing. 18 Holes, 6281 yards, par 72.",42.217194,-75.8234056,Camping|Land Adventures|Nature|Snow Adventures,Birding|Golf Private|Public Campgrounds|Skating|Skiing (XC),,"(42.217194, -75.8234056)"
Central New York,Broome County,Comfort Inn,,Binghamton,"Complimentary breakfast, conference facilities, outdoor pool, cable TV, non-smoking rooms available.",42.1413773,-75.9042306,Hotels & Motels,Hotels & Motels,,"(42.1413773, -75.9042306)"
Central New York,Broome County,Comfort Suites,http://www.comfortsuites.com/hotel-vestal-new york-NY384,Vestal,"All Suite hotel featuring a complimentary deluxe continental breakfast, fitness facility and guest pantry.",42.0968404,-75.9929483,Hotels & Motels,Hotels & Motels,,"(42.0968404, -75.9929483)"
Central New York,Broome County,Courtyard by Marriott - Binghamton,http://www.courtyard.com/bgmus,Vestal,"78 spacious guestrooms near Binghamton University, shopping centers, and downtown Binghamton, complimentary high-speed Internet access.",42.096324,-75.980039,Hotels & Motels,Hotels & Motels,,"(42.096324, -75.980039)"
Central New York,Broome County,Days Inn,,Binghamton,"Hotel property located near the downtown Binghamton district, near Roberson Museum & Science Center.",42.0950739,-75.921528,Hotels & Motels,Hotels & Motels,,"(42.0950739, -75.921528)"
Central New York,Broome County,Econo Lodge Inn & Suites,http://www.econolodge.com/,Binghamton,"Complimentary breakfast, conference facilities, hot tub in room available.",42.125013,-75.908263,Hotels & Motels,Hotels & Motels,,"(42.125013, -75.908263)"
Central New York,Broome County,Endicott Inn,http://www.endicottinn.com,Endicott,"Complimentary breakfast, conference facilities. AC, cable/satellite TV available, direct dial phone with modem connection available. Non-smoking rooms available.",42.0993913,-76.0479383,Hotels & Motels,Hotels & Motels,,"(42.0993913, -76.0479383)"
Central New York,Broome County,Fairfield Inn by Marriott Binghamton,http://www.marriott.com/BGMFI,Binghamton,"82 deluxe guestrooms with easy highway access. Complimentary high-speed Internet access, close to Broome Community College, parks, Cutler Botanic Gardens.",42.131922,-75.9056987,Hotels & Motels,Hotels & Motels,,"(42.131922, -75.9056987)"
Central New York,Broome County,Forest Lake Campground,http://www.forestlakeny.net,Windsor,"Spacious lakeside campsites; wooded and open. 22-acre lake with swimming, fishing and boating.",42.096762,-75.597737,Camping,Privately-owned Campgrounds,,"(42.096762, -75.597737)"
Central New York,Broome County,Grand Royale Hotel,http://www.grandroyalehotel.com,Binghamton,"Microwave & refrigerator in every guest room.  Also in-room coffee, iron, ironing board, & hair dryer.",42.098338,-75.911866,Hotels & Motels,Hotels & Motels,,"(42.098338, -75.911866)"
Central New York,Broome County,Greenwood Park,http://www.gobroomecounty.com/community/ParksGreenwood.php,Lisle,"Well maintained and offers a wide range of facilities. Fishing, beach, picnicking, XC and self-guiding trails.",42.2922,-76.093417,Camping|Snow Adventures|Water Adventures,Fishing|Public Campgrounds|Skiing (XC),,"(42.2922, -76.093417)"
Central New York,Broome County,Guestward Ho Camp,http://www.guestwardho.com,Deposit,"Wooded and open field with small lake. Boat rentals. Playground, rec. building, fishing, swimming.",42.005643,-75.477703,Camping,Privately-owned Campgrounds,,"(42.005643, -75.477703)"
Central New York,Broome County,Hampton Inn,http://www.hamptoninn.com,Johnson City,AC in rooms. Cable/satellite TV and direct dial phone. Non-smoking rooms available. Private baths. Wheelchair accessible rooms available.,42.1210326,-75.9740626,Hotels & Motels,Hotels & Motels,http://fallgetaways.iloveny.com/d3k/mem/all/7529/1869.jpg,"(42.1210326, -75.9740626)"
Central New York,Broome County,Hampton Inn & Suites,,Vestal,Our hotel sits on a scenic hillside overlooking the valley. We offer one king bed or two double beds and suites with fully equipped kitchens. Enjoy free continental breakfast.,42.0963273,-75.9836686,Hotels & Motels,Hotels & Motels,,"(42.0963273, -75.9836686)"
Central New York,Broome County,Holiday Inn Express Hotel & Suites,http://www.hiexpress.com/binghamton,Vestal,"81 Room property, meeting room for up to 50 people.",42.0967387,-75.9863115,Hotels & Motels,Hotels & Motels,,"(42.0967387, -75.9863115)"
Central New York,Broome County,Homewood Suites by Hilton Binghamton University,http://www.homewoodsuites.hilton.com,VESTAL,"All suite property, estended stay offering free breakfast every day and evening meal Monday through Thursday.  HSIA, indoor pool & Fitness center.",42.0975899,-75.985952,Hotels & Motels,Hotels & Motels,,"(42.0975899, -75.985952)"
Central New York,Broome County,Howard Johnson Inn & Suites,http://www.hojo.com,Binghamton,"Conference facilities, pets allowed. AC, kitchenettes and non-smoking rooms available. Private baths and TV.",42.1511653,-75.8985362,Hotels & Motels,Hotels & Motels,,"(42.1511653, -75.8985362)"
Central New York,Broome County,Kellystone Park Campground,,Nineveh,Family oriented and spacious with wooded and open sites.  Extensive recreational facilities.,42.1647053,-75.5271108,Camping,Privately-owned Campgrounds,,"(42.1647053, -75.5271108)"
Central New York,Broome County,Knights Inn,http://www.knightsinn-ny.com,Endicott,"Conference facilities, health club/exercise room, sauna/steam room and indoor pool.",42.105063,-76.033255,Hotels & Motels,Hotels & Motels,,"(42.105063, -76.033255)"
Central New York,Broome County,Lakeside Campground,http://www.ilovecamping.com,Windsor,Secluded wooded sites along a private lake. Free mini-train rides around the lake. Limited internet access available.,42.018662,-75.683076,Camping,Privately-owned Campgrounds,,"(42.018662, -75.683076)"
Central New York,Broome County,LaQuinta Inn,http://www.lq.com,Johnson City,"Easy highway access; Continental Breakfast, adjacent to 10 restaurants, large mall, health club with pool. HBO 1-3",42.125025,-75.970573,Hotels & Motels,Hotels & Motels,,"(42.125025, -75.970573)"
Central New York,Broome County,Motel 6,http://www.motel6.com/ad/u/luvny/gen/motel_list.asp,Binghamton,AC in rooms. Non-smoking rooms available.,42.1426548,-75.9035334,Hotels & Motels,Hotels & Motels,,"(42.1426548, -75.9035334)"
Central New York,Broome County,Once Upon A Time Bed & Breakfast,,Harpursville,Restored gothic home with decorated gardens. 2 guest rooms.,42.178937,-75.624306,B&Bs & Country Inns,B&Bs & Country Inns,,"(42.178937, -75.624306)"
Central New York,Broome County,Parkway Inn,http://www.tripadvisor.com/Hotel_Review-g48779-d93855-Reviews-Parkway_Inn-Vestal_New_York.html,Vestal,"Babysitters/child care, conference facilities .Pets allowed, pool and tennis (outdoor). Kitchenettes and non-smoking rooms available.",42.0900456,-76.0387073,Hotels & Motels,Hotels & Motels,,"(42.0900456, -76.0387073)"
Central New York,Broome County,Pickle Hill Bed & Breakfast,http://www.picklehill.net,Binghamton,A cozy retreat with the charm of 19th century living.  The Pickle Hill area was once near a canal connecting Binghamton to the Erie Canal.,42.138824,-75.895624,B&Bs & Country Inns,B&Bs & Country Inns,,"(42.138824, -75.895624)"
Central New York,Broome County,Pine Crest Campground,http://www.gocampingamerica.com/pinecrestny,Windsor,"Family-oriented camping along Susquehanna River.  Swimming, fishing, boating, canoe rentals and recreational activities.",42.0864251,-75.6422921,Camping,Privately-owned Campgrounds,,"(42.0864251, -75.6422921)"
Central New York,Broome County,Pine Valley Campground,http://www.pinevalleycampground.com,Endicott,"Spacious open and wooded sites around 6 acre lake. Centrally located to wineries, golf courses, shopping and restaurants.  Close to Binghamton.   Breakfast available on weekends and holidays.",42.145129,-76.088188,Camping,Privately-owned Campgrounds,,"(42.145129, -76.088188)"
Central New York,Broome County,Pumpkin Pine Farm Bed & Breakfast,http://www.pumpkinpinefarm.com,Harpursville,Lovely old farmhouse on 22 acres.  Quiet & Relaxing. 6 miles off  I-88 and 5 miles off NY Route 17.,42.1948336,-75.6536332,B&Bs & Country Inns,B&Bs & Country Inns,,"(42.1948336, -75.6536332)"
Central New York,Broome County,Quality Inn,,Vestal,Air conditioned rooms  and non-smoking rooms available. Health club/exercise room and outdoor pool.,42.096248,-75.9743,Hotels & Motels,Hotels & Motels,http://fallgetaways.iloveny.com/d3k/mem/all/7437/1846.jpg,"(42.096248, -75.9743)"
Central New York,Broome County,Red Carpet Inn,http://www.choicehotels.com,Endicott,"Health club/exercise room, pets allowed. AC, kitchenettes and non-smoking rooms available. Television in room and VCRs available.",42.092489,-76.083108,Hotels & Motels,Hotels & Motels,http://fallgetaways.iloveny.com/d3k/mem/all/7833/1949.jpg,"(42.092489, -76.083108)"
Central New York,Broome County,"Red Roof Inn, Inc.",http://www.redroof.com/ad/u/luvny/gen/index.asp,Johnson City,Located adjacent to Oakdale Mall off NY 17 at Exit 70 N.  Convenient to area restaurants and shopping. Golf packages available. Fridge and microwave rental. AAA discounts.,42.1277561,-75.9699207,Hotels & Motels,Hotels & Motels,,"(42.1277561, -75.9699207)"
Central New York,Broome County,Residence Inn by Marriott - Binghamton University,http://www.residenceinn.com,Vestal,"72 room all suite hotels, private entrances, outdoor pool and whirlpool, full hot breakfast complimentary.  Fully equipped kitchens in all suites.  Ideal for extended stays or just for a weekend.",42.093398,-75.956888,Hotels & Motels,Hotels & Motels,,"(42.093398, -75.956888)"
Central New York,Broome County,Salisbury's Chenango Shores Campground,,Chenango Forks,"Family oriented. Large, open and shaded sites. Planned activities.",42.2380181,-75.8463022,Camping,Privately-owned Campgrounds,,"(42.2380181, -75.8463022)"
Central New York,Broome County,Skylark Motor Lodge,,Vestal,Air conditioned rooms with non-smoking rooms available.,42.086199,-76.059012,Hotels & Motels,Hotels & Motels,,"(42.086199, -76.059012)"
Central New York,Broome County,South View Farm Vacation Rental,http://bbonline.com/ny/southviewfarm/,Lisle,"Located 7 miles from I-81 - Exit 8, Whitney Point, located between Binghamton and Ithaca.  A renovated farmhouse with 150 acres of woods, pastures and streams. Choose from three different rooms or you can rent the entire house! One room has a private bath, two rooms have a shared bath.",42.390815,-76.082364,B&Bs & Country Inns,B&Bs & Country Inns,,"(42.390815, -76.082364)"
Central New York,Broome County,Super 8 Motel,http://www.super8.com,Binghamton,"Refurnished rooms, business suites, HBO 1-2-3.",42.124509,-75.909659,Hotels & Motels,Hotels & Motels,,"(42.124509, -75.909659)"
Central New York,Broome County,The Bed & Breakfast at Endwell Greens,http://www.endwellgreens.com,Endwell,"A French traditional style home built in 1996 overlooking Endwell Greens, our 18 hole championship golf course.",42.150135,-76.009304,B&Bs & Country Inns,B&Bs & Country Inns,,"(42.150135, -76.009304)"
Central New York,Broome County,Traditions at the Glen Resort & Conference Center,http://www.traditionsresort.com,Johnson City,27 holes of rolling terrain overlooking the Southern Tier River Valley with a challenge on every hole.  Lodging available. Light menu.,42.1174494,-75.9956712,Convention Centers|Hotels & Motels|Land Adventures,Convention centers|Golf Public|Hotels & Motels,,"(42.1174494, -75.9956712)"
Central New York,Broome County,Twin Brooks Recreations,,Chenango Forks,"75 sites on 120 acres; some with full hook-up; all have electric and water. Plenty of room to rest and romp; pool, rec hall, restaurant.",42.253347,-75.838639,Camping,Privately-owned Campgrounds,,"(42.253347, -75.838639)"
Central New York,Broome County,Vestal Motel,,Vestal,"Motel with easy access to Binghamton University, shopping, restaurants and more.",42.090096,-76.035662,Hotels & Motels,Hotels & Motels,,"(42.090096, -76.035662)"
Chautauqua-Allegheny,Cattaraugus County,Aim High Outdoor Adventures,http://www.AimHighOutdoors.com,Leon,Year round cabins with heat/electricity on snowmobile trails.  Cross Country Skiing right outside your door.,42.3256662,-78.9983432,Cabins & Cottages,Cabins & Cottages,,"(42.3256662, -78.9983432)"
Chautauqua-Allegheny,Cattaraugus County,Allegany State Park-Red House Area,http://www.nysparks.com,Salamanca,"65,000 acre park with sand beaches and hiking and nature trails that do double duty for horseback riding, biking, XC skiing and snowmobiling. Camping.",42.1578412,-78.7150311,Camping,Public Campgrounds,http://fallgetaways.iloveny.com/d3k/mem/all/4105/1277.jpg,"(42.1578412, -78.7150311)"
Chautauqua-Allegheny,Cattaraugus County,Amish Cottage At Eagle's Rest Farm,,Leon,The Amish Cottage at Eagle's Rest Farm is a quiet retreat nestled in the heart of the Amish Community.  The cottage has been the first home to five young Amish couples and their babies.  Electric and plumbing have been added for your convenience.,42.269253,-79.003341,Cabins & Cottages,Cabins & Cottages,http://fallgetaways.iloveny.com/d3k/mem/all/9483/2293.jpg,"(42.269253, -79.003341)"
Chautauqua-Allegheny,Cattaraugus County,Arrowhead Campgrounds,http://www.arrowheadcamping.com,Delevan,"Exceptionally scenic, active camping and recreation area.  Hilltop views.  Lake and one mile trout stream in valley.  2 Rec. buildings, swimming, boating, store, 200 acres.",42.4624658,-78.482154,Camping,Privately-owned Campgrounds,http://fallgetaways.iloveny.com/d3k/mem/all/4113/1280.jpg,"(42.4624658, -78.482154)"
Chautauqua-Allegheny,Cattaraugus County,Best Western University Inn,http://www.BestWestern.com/UniversityInn,Olean,"Near St. Bonaventure University, Jamestown Community College's Olean Campus, Seneca Allegany Casino, Holiday Valley and HoliMont.",42.0768524,-78.465323,Hotels & Motels,Hotels & Motels,http://fallgetaways.iloveny.com/d3k/mem/all/8399/2082.jpg,"(42.0768524, -78.465323)"
Chautauqua-Allegheny,Cattaraugus County,Black Dog Lodge,http://www.blackdoglodge.com,Ellicottville,"Located five minutes north of Ellicottville, on 60 acres of beautiful woodlands, join us at Black Dog Lodge for country relaxation at it's finest.  A perfect weekend get-a-way.",42.2647,-78.664844,B&Bs & Country Inns,B&Bs & Country Inns,http://fallgetaways.iloveny.com/d3k/mem/all/279/59.jpg,"(42.2647, -78.664844)"
Chautauqua-Allegheny,Cattaraugus County,Bush Bed & Breakfast,http://www.bushbedandbreakfast.com,Little Valley,"Nestled in the foothills of the enchanted Allegheny Mountains, we are minutes away from seasonal activities in western New York.  Enjoy your visit in our renovated country home built on 9 acres.  Available for small conferences or meetings.",42.2346099,-78.76912,B&Bs & Country Inns,B&Bs & Country Inns,http://fallgetaways.iloveny.com/d3k/mem/all/920/231.jpg,"(42.2346099, -78.76912)"
Chautauqua-Allegheny,Cattaraugus County,Cayuga House Sleep 'n Ski,,Ellicottville,Remodeled for the skier!  Walk to restaurants and shops in downtown Ellicottville.  Just a short drive to HoliMont or Holiday Valley Mountain Resort.,42.276497999999997,-78.669548000000006,B&Bs & Country Inns,B&Bs & Country Inns,,"(42.276497999999997, -78.669548000000006)"
Chautauqua-Allegheny,Cattaraugus County,Century Manor Grill House & Suites,,Olean,A well-kept secret in Olean.  Wonderful food in a cheerful environment.,42.078037,-78.425761,Hotels & Motels,Hotels & Motels,http://fallgetaways.iloveny.com/d3k/mem/all/280/60.jpg,"(42.078037, -78.425761)"
Chautauqua-Allegheny,Cattaraugus County,Country Inn & Suites By Carlson,http://www.countryinns.com/oleanny,Olean,"Located across from St Bonaventure University, 20 min, from Allegany State Park. Rock City Park is located 10 min, from us w/ natural rock formations and caves.",42.0790682,-78.4766342,Hotels & Motels,Hotels & Motels,http://fallgetaways.iloveny.com/d3k/mem/all/1161/288.jpg,"(42.0790682, -78.4766342)"
Chautauqua-Allegheny,Cattaraugus County,Dudley,,Salamanca,"A historic building with rooms under renovation for a modern restful stay.  Conference and retreat center with eating establishment on premises.  Within 2 miles of casino, free shuttle.",42.151359,-78.7163096,Hotels & Motels,Hotels & Motels,http://fallgetaways.iloveny.com/d3k/mem/all/8744/2147.jpg,"(42.151359, -78.7163096)"
Chautauqua-Allegheny,Cattaraugus County,Edelweiss Lodge,http://www.edelweissskilodge.com,Ellicottville,"Nestled in the small town charm of Ellicottville, known as the Aspen of the East, in the heart of the spectacular Allegheny Mountains, you'll find Edelweiss Lodge.  A four seasons resort on 5 1/4 acres offering year round fun, activities and relaxation.",42.2736296,-78.6716758,Cabins & Cottages,Cabins & Cottages,,"(42.2736296, -78.6716758)"
Chautauqua-Allegheny,Cattaraugus County,Elkdale RV Resort & Guest House,http://www.elkdalervresort.com/,Salamanca,Pull your RV in or take advantage of one of our new and cozy cabins.,42.21,-78.75,Camping,Privately-owned Campgrounds,http://fallgetaways.iloveny.com/d3k/mem/all/9485/2294.jpg,"(42.21, -78.75)"
Chautauqua-Allegheny,Cattaraugus County,Emerald Acres Campground,http://www.campemeraldacres.com/,Franklinville,"Wooded and open sites, small store, rec. room, fishing in pond, free showers. One night free when staying one full week.",42.2970644,-78.3852812,Camping,Privately-owned Campgrounds,,"(42.2970644, -78.3852812)"
Chautauqua-Allegheny,Cattaraugus County,ERA Vacation Properties,,Ellicottville,"Rentals of privately owned townhouses, chalets, condos, village and area homes. Fully equipped, able to accommodate small and large groups - weekly, weekend & monthly rates.  Available year round.",42.275698,-78.672063,Vacation Rentals,Vacation Rentals,,"(42.275698, -78.672063)"
Chautauqua-Allegheny,Cattaraugus County,Evergreen Tea Room and Guest House,http://www.EvergreenTeaRoom.com,Great Valley,"A cozy remodeled B&B serving homegrown eggs and seasonal fresh fruits with their breakfast.  Close proximity to Holiday Valley, St. Bonaventure, Allegany State Park, hiking trails, antiquing and golfing.  The rooms have a beautiful view of the fall foliage.",42.2148487,-78.6359971,B&Bs & Country Inns,B&Bs & Country Inns,,"(42.2148487, -78.6359971)"
Chautauqua-Allegheny,Cattaraugus County,"Gallets House Bed & Breakfast, The",http://www.galletshouse.com,Allegany,"1896 Victorian, Five Bedrooms, Private Baths, A/C, Outdoor Hot Tub, Full Breakfast. Plus 3 bedroom suite for families.",42.077114,-78.497206,B&Bs & Country Inns,B&Bs & Country Inns,http://fallgetaways.iloveny.com/d3k/mem/all/7650/1909.jpg,"(42.077114, -78.497206)"
Chautauqua-Allegheny,Cattaraugus County,Hampton Inn,http://www.Olean.HamptonInn.com,Olean,"Complimentary breakfast, conference facilities and health club/exercise room. Rooms have AC, cable/satellite TV and non-smoking rooms are available.",42.0870418,-78.4291027,Hotels & Motels,Hotels & Motels,http://fallgetaways.iloveny.com/d3k/mem/all/7525/1868.jpg,"(42.0870418, -78.4291027)"
Chautauqua-Allegheny,Cattaraugus County,Harwood Haven Cabin Resort & Camping,http://HarwoodHaven.net,Farmersville Station,"106 acre campground adjoining 3109 acre State Forest gives you plenty of room for exploring our natural resources.  Whether you want to stay in one of our premium cabins, tent camp, or have a full RV hook up, we offer a get-away that is just what you've been looking for.",42.4153555,-78.3632449,Camping,Privately-owned Campgrounds,,"(42.4153555, -78.3632449)"
Chautauqua-Allegheny,Cattaraugus County,Holiday Inn Express Hotel & Suites,http://www.HiExpress.com,Salamanca,"Hotel with 68 Guest Rooms, Complimentary Deluxe Continental Breakfast, Indoor Pool, Fitness Center and much more for your comfort.",42.157336,-78.746548,Hotels & Motels,Hotels & Motels,http://fallgetaways.iloveny.com/d3k/mem/all/8/1.jpg,"(42.157336, -78.746548)"
Chautauqua-Allegheny,Cattaraugus County,Holiday Valley Mountain Resort/Inn at Holiday Valley,http://www.holidayvalley.com,Ellicottville,"Summer features an 18 hole, 6300 yard golf course, lessons & practice facility, 3 pools, mountain biking & hiking trails.  Professional staff is waiting to serve your conference, business meeting or wedding.  Rated #3 in the East by Ski Magazine.  58 slopes, 37 night ski trails, lift capacity of 23,850 per hour, terrain parks, x-country trails, snow tubing and an average snowfall of 180"".  Please check their website for conference facility information.",42.2630369,-78.6751159,Convention Centers|Hotels & Motels|Land Adventures|Snow Adventures,Bicycling|Convention centers|Golf Private|Hotels & Motels|Skiing & Boarding|Skiing (XC)|Snow tubing,http://fallgetaways.iloveny.com/d3k/mem/all/7379/1830.jpg,"(42.2630369, -78.6751159)"
Chautauqua-Allegheny,Cattaraugus County,Hotel Westgate,http://www.TheHotelWestgate.com,Salamanca,"We are a brand new unique ""Boutique Hotel"" that offers a variety of specialized rooms for your needs.  We are at I-86 & Exit 21 in the heart of the Enchanted Mountains, less than a mile from the world class Seneca Allegany Casino.  All of our rooms are well appointed for your immediate needs with internet connections available in all rooms.  We are committed to providing a relaxed and comfortable atmosphere with a variety of amenities.",42.16,-78.74,Hotels & Motels,Hotels & Motels,,"(42.16, -78.74)"
Chautauqua-Allegheny,Cattaraugus County,Ilex Inn,http://www.ilexinn.com,Ellicottville,"ILEX Inn offers 6 luxury guest rooms w/fireplaces, air conditioning, and cable TV.  Year-round hot tub, seasonal in-ground pool, patio lounge, fireplace lounge for all to enjoy. Laze by the pool, hike, mountain bike, ski, snowmobile, the ILEX is in the midst of it all.  Walking distance to Ellicottville's shops and restaurants.",42.281099,-78.6651615,B&Bs & Country Inns,B&Bs & Country Inns,http://fallgetaways.iloveny.com/d3k/mem/all/7101/1736.jpg,"(42.281099, -78.6651615)"
Chautauqua-Allegheny,Cattaraugus County,"Inn at Holiday Valley, The",http://www.holidayvalley.com,Ellicottville,The Award winning Inn at Holiday Valley is the Hallmark Property of Holiday Valley Resort. The Comfortable atmosphere & Convenient location makes it an ideal site for family vacations as well as Business Meetings.,42.2630369,-78.6751159,Hotels & Motels,Hotels & Motels,http://fallgetaways.iloveny.com/d3k/mem/all/7342/1820.jpg,"(42.2630369, -78.6751159)"
Chautauqua-Allegheny,Cattaraugus County,"Jefferson Inn, The",http://thejeffersoninn.com,Ellicottville,Centrally located behind Ellicottville's Town Hall. Easy walking  to restaurants and  gift shops. Minutes away from Holiday Valley Ski and Golf Resort.,42.275812,-78.673793,B&Bs & Country Inns,B&Bs & Country Inns,,"(42.275812, -78.673793)"
Chautauqua-Allegheny,Cattaraugus County,Kelly House Lodge,http://www.kellyhouselodge.com,Ellicottville,Lodge style hotel.  Specialize in group accommodations.  Breakfast offered on weekends.  Dinner parties available on request.  Families welcome.,42.278735,-78.666199,Vacation Rentals,Vacation Rentals,http://fallgetaways.iloveny.com/d3k/mem/all/107/32.jpg,"(42.278735, -78.666199)"
Chautauqua-Allegheny,Cattaraugus County,Lantern Motel,,Allegany,"10 Units, cable, AC, phones, coffee RM, Craft shop on site, 22.00 and up.",42.0999669,-78.5171437,Hotels & Motels,Hotels & Motels,,"(42.0999669, -78.5171437)"
Chautauqua-Allegheny,Cattaraugus County,Manor House at Mansfield Coach & Cutter,http://manorhouseMCC.com,Little Valley,"Historic 1850's home on 130 acres. 2 Large bed/sitting rooms, Hot tub, fireplace, golf, wooded trails, water garden, pool.",42.297522,-78.7909693,B&Bs & Country Inns,B&Bs & Country Inns,http://fallgetaways.iloveny.com/d3k/mem/all/7112/1739.jpg,"(42.297522, -78.7909693)"
Chautauqua-Allegheny,Cattaraugus County,Microtel Inn & Suites,http://www.microtelinn.com,Allegany,"Newly opened in 2004, located near St. Bonaventure University, Seneca Allegany Casino, HoliMont and Holiday Valley.",42.0778055,-78.4744189,Hotels & Motels,Hotels & Motels,http://fallgetaways.iloveny.com/d3k/mem/all/8412/2083.jpg,"(42.0778055, -78.4744189)"
Chautauqua-Allegheny,Cattaraugus County,My Country Cottage Bed and Breakfast,http://MyCountryCottageBandB.com,Hinsdale,"Available daily, nightly, weekends or weekly. Full kitchen, two bedrooms: one queen and one bunk with full and twin beds. Full bath.  Complete with phone, TV, movies, books, board games, game room with pool table, golf clubs, breakfast foods, snacks. Children and dogs are very welcome. Ten minutes from Olean. Relax, feel welcome, and feel at home.",42.1449207,-78.3514852,B&Bs & Country Inns|Cabins & Cottages,B&Bs & Country Inns|Cabins & Cottages,,"(42.1449207, -78.3514852)"
Chautauqua-Allegheny,Cattaraugus County,Myers Steak House and Inn,http://MyersSteakHouseAndInn.com,Salamanca,"If you are looking for a fabulous steak or fresh seafood in a comfortable lodge style setting, topped off with unmatched service, Myers Steak House and Inn is the place for you! Browse our site to view our menu, area attractions, and other information about our Salamanca restaurant and inn.",42.15721,-78.698693,B&Bs & Country Inns|Restaurants,American|B&Bs & Country Inns,http://fallgetaways.iloveny.com/d3k/mem/all/12496/3071.jpg,"(42.15721, -78.698693)"
Chautauqua-Allegheny,Cattaraugus County,Myers Steakhouse & Inn,http://www.myerssteakhouseandinn.com,Salamanca,Completely renovated turn of the century building. Full menu. Our specialty is steak.,42.15721,-78.698693,Hotels & Motels|Restaurants,American|Hotels & Motels,,"(42.15721, -78.698693)"
Chautauqua-Allegheny,Cattaraugus County,Mystic Water Resort,http://www.mysticwaterresort.com,Limestone,"Located on the border of Allegany State Park with all it has to offer, we offer 2 bedroom, fully equipped  log cabins, fishing, hunting, boating, golf range, snowmobile trails, hiking, cross country skiing, and Putt Putt Golf!  Bring your snowmobile! With access to over 200 miles of snowmobile trails, you can park at your doorstep!",42.02817,-78.6432619,Cabins & Cottages,Cabins & Cottages,http://fallgetaways.iloveny.com/d3k/mem/all/285/65.jpg,"(42.02817, -78.6432619)"
Chautauqua-Allegheny,Cattaraugus County,Old Library Inn,http://www.oldlibraryrestaurant.com,Olean,"Since its construction in 1895, the ""pink house"" has been a home to a local oil producer, a community physician and now Olean's first Bed & Breakfast Inn.  Relax before a warm fire in the sitting room or simply enjoy a quiet evening in the beautiful surroundings.",42.076683,-78.430383,B&Bs & Country Inns,B&Bs & Country Inns,,"(42.076683, -78.430383)"
Chautauqua-Allegheny,Cattaraugus County,Onoville Marina,http://www.OnovilleMarina.org,Steamburg,"Located on the 12,000 acre Allegheny Reservoir, just west of Allegany State Park.  The sparkling, pristine waters reflect the surrounding hills with forests that change with the seasons.  Explore 91 miles of non-commercialized shoreline and secluded bays or camp at one of the many US Forest Service campsites accessible only by water.",42.1046195,-78.8986345,Camping|Water Adventures,Camping|Marinas|Public Campgrounds,http://fallgetaways.iloveny.com/d3k/mem/all/2998/937.jpg,"(42.1046195, -78.8986345)"
Chautauqua-Allegheny,Cattaraugus County,Peace Creek Inn,http://www.peacecreekinn.com,Great Valley,A cozy retreat between the Seneca Allegany Casino and Holiday Valley in Ellicottville.  Take a short cab ride to either!,42.1845077,-78.6821012,Hotels & Motels,Hotels & Motels,,"(42.1845077, -78.6821012)"
Chautauqua-Allegheny,Cattaraugus County,Pope Haven Campground,http://www.popehaven.com,Randolph,"Nestled among Amish farms and shops.  Clean, spacious, wooded and sunny sites.  Planned activities.  Cabins, full hook-ups,  pool, swimming and fishing.",42.209817,-79.0002,Camping,Privately-owned Campgrounds,,"(42.209817, -79.0002)"
Chautauqua-Allegheny,Cattaraugus County,Riverhurst Park Campground,http://RiverhurstPark.com,Olean,A scenic and historic campground snuggled alongside the Allegheny River.,42.057839,-78.372385,Camping,Privately-owned Campgrounds,,"(42.057839, -78.372385)"
Chautauqua-Allegheny,Cattaraugus County,Seneca Allegany Casino and Resort Hotel,http://www.senecaalleganycasino.com,Salamanca,"Now offering 11 stories of breathtaking views, 413 luxury rooms, 3 new dining options to please any palate, state-of-the-art meeting and business areas, expanded world class gaming, an exclusive full-service spa, salon and fitness center, and a brand new retail outlet!  We welcome you to explore this spectacular resort destination where you are given priority treatment every step of the way.",42.151328,-78.747185,Hotels & Motels|Sports & Gaming,Gaming|Hotels & Motels,http://fallgetaways.iloveny.com/d3k/mem/all/533/95.jpg,"(42.151328, -78.747185)"
Chautauqua-Allegheny,Cattaraugus County,Shamrock Pines Campground,http://www.ShamrockPines.com,Franklinville,"395 acres, level wooded & open sites overlooking lake.  30 Amp service, full hookups, store, laundry, arcade, large rec hall, pavilion, playground, horseshoes, new pool, planned activities.",42.297718,-78.523006,Camping,Privately-owned Campgrounds,,"(42.297718, -78.523006)"
Chautauqua-Allegheny,Cattaraugus County,Stone Mountain Chalet Lodging,http://www.stonemountainchalet.com,Great Valley,"Upscale mountain lodge just minutes from Holiday Valley Mountain Resort and the Seneca Allegany Casino with 10 chalet townhouse units completely furnished with all modern amenities.  Chalets feature private deck entrances, full kitchens, fireplaces and jaccuzzi baths.  Enjoy our on-site clubhouse with large hot tub.",42.213492,-78.68658,Vacation Rentals,Vacation Rentals,,"(42.213492, -78.68658)"
Chautauqua-Allegheny,Cattaraugus County,Sugar Pine Lodge,http://www.sugarpinelodge.com,Ellicottville,"Suites with fireplaces, mini frig., TV/VCR, videos  Jacuzzi, a/c, internet access & private entrances. Heated pool. Village, restaurants, golfing & skiing just a  short walk.",42.269276,-78.6682961,B&Bs & Country Inns,B&Bs & Country Inns,,"(42.269276, -78.6682961)"
Chautauqua-Allegheny,Cattaraugus County,Tamarack Club,http://www.TamarackClub.com,Ellicottville,"The Tamarack Club's 138 condos and hotel rooms range from studio to three bedroom homes.  Ideal for a family vacation or business outing, Tamarack can accommodate your every need.  Amenities include an indoor/outdoor heated year-round pool,  two outdoor hot tubs, health spa, restaurant/ lounge, room service, concierge service, underground parking, conference rooms, wi-fi, and valet/bell service.",42.2629369,-78.667019,Vacation Rentals,Vacation Rentals,,"(42.2629369, -78.667019)"
Chautauqua-Allegheny,Cattaraugus County,Tarry Here Bed & Breakfast,http://www.tarryhere.com,Salamanca,"Come slumber and tarry at our beautiful bed and breakfast where the atmosphere is warm and inviting.  With five luxurious bedrooms to choose from, guests will find the charm and beauty welcoming and relaxing.",42.155558,-78.721099,B&Bs & Country Inns,B&Bs & Country Inns,http://fallgetaways.iloveny.com/d3k/mem/all/8379/2080.jpg,"(42.155558, -78.721099)"
Chautauqua-Allegheny,Cattaraugus County,Telemark Motel,http://www.telemarkmotel.com,Ellicottville,Newly remodeled; motorcoach groups are welcomed. Restaurant.,42.263197,-78.663323,Hotels & Motels,Hotels & Motels,http://fallgetaways.iloveny.com/d3k/mem/all/5504/1461.jpg,"(42.263197, -78.663323)"
Chautauqua-Allegheny,Cattaraugus County,"Triple R Campground, Resort & Trailer Sales",http://www.triplercamp.com,Franklinville,"Clean well maintained family camp with full hook up sites. RV repair parts, camping supplies and mini-golf.New cable TV at each site. Cabin rentals, video arcade.",42.3342433,-78.4925001,Camping,Privately-owned Campgrounds,http://fallgetaways.iloveny.com/d3k/mem/all/4554/1341.jpg,"(42.3342433, -78.4925001)"
Chautauqua-Allegheny,Cattaraugus County,Wingate by Wyndham,http://www.wingateinns.com,Ellicottville,"This hotel features ski/storage lockers, 24 hour business center, complimentary breakfast, indoor pool & hot tub, fitness center, meeting & board rooms, free high-speed internet, free cable, in room coffee, mini fridge, microwave and so much more!",42.28,-78.67,Hotels & Motels,Hotels & Motels,http://fallgetaways.iloveny.com/d3k/mem/all/9178/2203.jpg,"(42.28, -78.67)"
Finger Lakes,Cayuga County,10 Fitch,http://www.10Fitch.com,AUBURN,"For those who desire a truly unique and unforgettable Finger Lakes B&B getaway. 10 Fitch offers elegance, tranquility, romance, & just a little bit of whimsy. The comfortable and private atmosphere of this inn offers the hospitality, personal attention, and warm charm of a B&B perfectly blended with a luxurious, unique style with modern amenities.",42.921962,-76.567363,B&Bs & Country Inns,B&Bs & Country Inns,,"(42.921962, -76.567363)"
Finger Lakes,Cayuga County,10 Fitch,http://www.10fitch.com,Auburn,"A luxurious and romantic inn in the heart of Auburn's Historic District just minutes away from the wineries and Owasco and Skaneateles Lakes. Upscale property offers modern comforts and amenities with the warm charm, personal service and private feel of a B&B. Features 5 fireplaces, spacious 3-room suites, large backyard with gardens, a veranda, fire pit and deck for outdoor dining. Private en-suite couples massages, dinner picnics & chaffeured winery tours will make your escape together truly memorable.",42.921962,-76.567363,B&Bs & Country Inns,B&Bs & Country Inns,http://fallgetaways.iloveny.com/d3k/mem/all/9173/2199.jpg,"(42.921962, -76.567363)"
Finger Lakes,Cayuga County,Anchor Resort & Marina,http://www.anchor-resort.com,Fair Haven,Offering a four-room Bed & Breakfast accommodations plus nine cabins and an RV on the southern end of Little Sodus Bay.,43.314577,-76.7168219,B&Bs & Country Inns|Cabins & Cottages|Water Adventures,B&Bs & Country Inns|Cabins & Cottages|Marinas|Motorboat rentals,http://fallgetaways.iloveny.com/d3k/mem/all/9174/2201.jpg,"(43.314577, -76.7168219)"
Finger Lakes,Cayuga County,Annie's Guest House,http://aghaurora.com,AURORA,"From the front porch it’s only a 5 minute walk to the Aurora Inn, the village market, Bet the Farm—a specialty wine shop—the Fargo Bar & Grill—a favorite local hangout—the Aurora Free Library & Morgan Opera House, the Village Arts Center, Wells College, a children’s playground, and Cayuga Lake!",42.757358,-76.703106,B&Bs & Country Inns,B&Bs & Country Inns,,"(42.757358, -76.703106)"
Finger Lakes,Cayuga County,Aurora Inn,http://www.innsofaurora.com,Aurora,"Enjoy true lakefront dining and luxury accommodations at the historic Aurora Inn, built in 1833. Outstanding food, exquisite décor, and gracious service provide an unforgettable experience for you and your guests.  Audubon Greenleaf rated.",42.7540771,-76.7036569,B&Bs & Country Inns,B&Bs & Country Inns,http://fallgetaways.iloveny.com/d3k/mem/all/168/45.jpg,"(42.7540771, -76.7036569)"
Finger Lakes,Cayuga County,A Wicher Garden Bed & Breakfast,http://www.wichergardeninn.com,Auburn,"A country home 2 miles from downtown Auburn, and a short drive from Skaneateles or Seneca Falls. A luxury country B&B, offering uniquely decorated rooms, outdoor decks & lawns filled with trees. Guest living room with fireplace.",42.9005937,-76.5828762,B&Bs & Country Inns,B&Bs & Country Inns,http://fallgetaways.iloveny.com/d3k/mem/all/2356/702.jpg,"(42.9005937, -76.5828762)"
Finger Lakes,Cayuga County,Best Western Weedsport Inn,http://www.bestwestern.com,Weedsport,"Modern, comfortable and spacious guest rooms. Designed for business or pleasure travelers. Outdoor inground pool, room front parking.  In room fresh brewed coffee, refrigerator/microwaves.",43.0556751,-76.5569811,Hotels & Motels,Hotels & Motels,,"(43.0556751, -76.5569811)"
Finger Lakes,Cayuga County,Budget Inn,,Auburn,"Air conditioned rooms, cable/satellite TV, direct dial phone. Wheelchair accessible rooms available.",42.932541,-76.569611,Hotels & Motels,Hotels & Motels,,"(42.932541, -76.569611)"
Finger Lakes,Cayuga County,Chantelle Marie Lakehouse,http://www.chantellemarielakehouse.com,Auburn,"Located on the western shore of Owasco Lake, in the heart of the Finger Lakes, Chantelle Marie’s unique A-Frame design offers breathtaking views of the lake below. Well equipped rooms with private baths, comfortable furnishings and mouthwatering food & refreshments will make each guest feel at home during their stay.",42.861471,-76.534582,B&Bs & Country Inns,B&Bs & Country Inns,,"(42.861471, -76.534582)"
Finger Lakes,Cayuga County,Cross Lake Park Campground,,Cato,"Shaded sites, family oriented. Swimming, boating, fishing, rec hall, hayrides, hiking, boat rental, store, playground. Scenic views of a bordering lake.",43.1634895,-76.4866675,Camping,Privately-owned Campgrounds,,"(43.1634895, -76.4866675)"
Finger Lakes,Cayuga County,Days Inn,http://www.diauburn.com,Auburn,We are conveniently located at the heart of the Finger Lakes region. We have 51 rooms which offer our guests a choice of smoking and special need rooms. We also have an executive room with a jacuzzi.,42.9282218,-76.5667516,Hotels & Motels,Hotels & Motels,,"(42.9282218, -76.5667516)"
Finger Lakes,Cayuga County,Days Inn Weedsport,http://www.daysinn.com,Weedsport,Near to State Fairgrounds-30 miles; Fingerlakes Outlet Mall-30 miles; Airport-45 miles.,43.048677,-76.5627197,Hotels & Motels,Hotels & Motels,,"(43.048677, -76.5627197)"
Finger Lakes,Cayuga County,Duck Lake Campground,http://ducklakecampground.com,Red Creek,"A quiet peaceful park with fishing and swimming, right on the water.",43.25,-76.72,Camping,Privately-owned Campgrounds,,"(43.25, -76.72)"
Finger Lakes,Cayuga County,E. B. Morgan House,http://www.innsofaurora.com,Aurora,"Completely renovated, seven-room guest house on the eastern shores of Cayuga Lake. Perfect for weddings and family reunions, catered meals available. Run by the Aurora Inn.",42.756541,-76.704133,B&Bs & Country Inns,B&Bs & Country Inns,http://fallgetaways.iloveny.com/d3k/mem/all/9176/2202.jpg,"(42.756541, -76.704133)"
Finger Lakes,Cayuga County,Empire Haven Nudist Park,http://www.empirehaven.homestead.com/,Moravia,"Family oriented with heated pool, sauna, whirlpool and planned events.",42.683481,-76.350333,Camping,Naturist (Nudist) Campgrounds,,"(42.683481, -76.350333)"
Finger Lakes,Cayuga County,Fair Haven Beach State Park,http://www.nysparks.com,Fair Haven,"High bluffs above beaches on Lake Ontario & hilly woodlands. Sterling Pond, surrounded by campsites & Y.R cabins. Picnic facilities. Winter: ice fishing, sledding, snowmobiling, XC skiing.",43.6990325,-73.3317428,Camping|Snow Adventures,Public Campgrounds|Skiing (XC)|Snowmobiling,,"(43.6990325, -73.3317428)"
Finger Lakes,Cayuga County,Fair Point Marina & RV Resort,http://www.fairpointmarina.com,Fair Haven,We offer marine services to visitors and local residents. (The business was formerly named Boathouse Marina.),43.344502,-76.713393,Camping|Water Adventures,Marinas|Privately-owned Campgrounds,,"(43.344502, -76.713393)"
Finger Lakes,Cayuga County,Fillmore Glen State Park,http://www.nysparks.com,Moravia,"Oasis of woods surrounding a long, narrow gorge. 5 waterfalls and a botanically rich glen. Camping, cabins, stream-fed swimming pool, hiking. Winter: XC skiing, snowmobiling.",42.697691,-76.407855,Cabins & Cottages|Camping|Land Adventures|Snow Adventures,Cabins & Cottages|Hiking|Public Campgrounds|Skiing (XC)|Snowmobiling,http://fallgetaways.iloveny.com/d3k/mem/all/2001/579.jpg,"(42.697691, -76.407855)"
Finger Lakes,Cayuga County,Grant's Vacation Park,,Fair Haven,"1.1 miles north of Route 104A. Relax, swim, fish and boat on Fair Haven Bay or Lake Ontario. 1000' of waterfront, walk to Fair Haven Beach State Park. Mature community for RV owners April - October.",43.3259802,-76.6990124,Camping,Privately-owned Campgrounds,,"(43.3259802, -76.6990124)"
Finger Lakes,Cayuga County,Hejamada Family RV Park,http://www.hejamadacampground.com,Montezuma,"200 large sites suitable for tenting, trailers and motor homes.  Our sites easily accommodate slideouts without giving up privacy.  Fully furnished rental campers available.  Water, electric and full hook-ups are available.",42.9987656,-76.6926294,Camping,Privately-owned Campgrounds,,"(42.9987656, -76.6926294)"
Finger Lakes,Cayuga County,Holiday Inn-Auburn,http://www.hiauburn.com,Auburn,"Located in the scenic Finger Lakes Region- near Owasco and Skaneateles Lakes, cruises, wineries and historic sites. Customized group tour packages available.",42.934735,-76.567827,Hotels & Motels,Hotels & Motels,http://fallgetaways.iloveny.com/d3k/mem/all/7370/1826.jpg,"(42.934735, -76.567827)"
Finger Lakes,Cayuga County,Homer Wilson House,http://www.homerwilsonhouse.com,King Ferry,"Beautiful country setting in the Finger Lakes Region, private bath, wi-fi, and jacuzzi.",42.7081749,-76.6224647,B&Bs & Country Inns,B&Bs & Country Inns,,"(42.7081749, -76.6224647)"
Finger Lakes,Cayuga County,Inn at the Finger Lakes,http://www.innatthefingerlakes.com,Auburn,"Auburn's newest hotel, convenient to many Finger Lakes attractions. Complimentary continental breakfast and wine tasting.",42.934239,-76.562382,Hotels & Motels,Hotels & Motels,http://fallgetaways.iloveny.com/d3k/mem/all/4227/1300.jpg,"(42.934239, -76.562382)"
Finger Lakes,Cayuga County,King Ferry Hotel,,King Ferry,Non-smoking rooms available. Restaurant serving lunch Monday thru Saturday 11:30-2:00. Dinner served Friday and Saturday.,42.6676998,-76.6385879,Hotels & Motels|Restaurants,American|Hotels & Motels,,"(42.6676998, -76.6385879)"
Finger Lakes,Cayuga County,Lakeside Bed and Breakfast,http://www.lakesideauburn.com,Auburn,This lovely turn-of-the-century home (built 1905) is located on the eastern shore of Owasco Lake on 1+ acre with 150’ of lakefront. Guests will enjoy the tranquil setting and the warmth and character of this unique home before and after their planned activities. A homemade breakfast is served in the dining room or on the spacious screened-in porch.,42.8899224,-76.5184718,B&Bs & Country Inns,B&Bs & Country Inns,,"(42.8899224, -76.5184718)"
Finger Lakes,Cayuga County,Little Sodus Inn,http://www.fairhavenny.com/lsi/,Fair Haven,"Inn with cable television available, on Lake Ontario.",43.316357,-76.706221,B&Bs & Country Inns,B&Bs & Country Inns,,"(43.316357, -76.706221)"
Finger Lakes,Cayuga County,Maplegrove Bed & Breakfast,http://www.lakeontario.net/maplegrove,Sterling,"A touch of the Olde World, located on the Seaway Trail, in a renovated 1850s farm house. Two miles from Sterling Renaissance Festival: ten minutes from Lake Ontario beaches and fishing. Complimentary breakfast.",43.3185018,-76.6514728,B&Bs & Country Inns,B&Bs & Country Inns,,"(43.3185018, -76.6514728)"
Finger Lakes,Cayuga County,Pleasant Beach Hotel,http://www.pleasantbeach.com,Fair Haven,"Offering  ""B&B"" accommodations, restaurant with a bar that seats up to 150, and a 25 slip marina with docking available.",43.317794,-76.705708,Hotels & Motels|Restaurants,American|Hotels & Motels,http://fallgetaways.iloveny.com/d3k/mem/all/10021/2437.jpg,"(43.317794, -76.705708)"
Finger Lakes,Cayuga County,Riverforest Campground & Marina,http://www.campingfriend.com/riverforestpark/,Weedsport,"Located on the Erie Canal (New London Lock E-22 - Macedon Lock E-30).  Boat launch, boat and cabin rentals, store, laundry. Rec. building, playground, swimming pool, restaurant.",43.0744438,-76.5659381,Camping,Privately-owned Campgrounds,,"(43.0744438, -76.5659381)"
Finger Lakes,Cayuga County,Shady Shores Campground,http://www.shadyshorescampground.com,Fair Haven,"1500-ft off Lake Ontario and Blind Sodus Bay Shoreline. A family owned campground. Boat launch, boat rentals, store, laundry. Fishing, playground, rec. building.",43.33062,-76.715614,Camping,Privately-owned Campgrounds,,"(43.33062, -76.715614)"
Finger Lakes,Cayuga County,Sterling Creek Campground,,Sterling,"Adjacent to 18-hole golf course, 2 miles from Renaissance Festival. 50 sites, 2 shower houses, large recreation room, on Sterling Creek with docks. 2 miles from Renaissance Festival and State Park, golf course, 12 miles from HarborFest, 15' x 60' lots, shaded tent sites.",43.3390116,-76.6782457,Camping,Privately-owned Campgrounds,,"(43.3390116, -76.6782457)"
Finger Lakes,Cayuga County,Super 8 Motel Auburn,http://www.super8.com,Auburn,Super 8 Auburn/Finger Lakes Area hotel near Owasco Lake for a comfortable night in Upstate New York. Located seven miles from Interstate 90 between Syracuse and Rochester.  Hotel provides you with comfortable accommodations and friendly service.,42.931753,-76.574024,Hotels & Motels,Hotels & Motels,,"(42.931753, -76.574024)"
Finger Lakes,Cayuga County,Suttercreek Campground,http://www.suttercreekcampground.com,Sterling,"Two cabins and 42 transient sites, some with full hook-up. Creek swimming and fishing.",43.33,-76.65,Cabins & Cottages|Camping,Cabins & Cottages|Privately-owned Campgrounds,,"(43.33, -76.65)"
Finger Lakes,Cayuga County,The Crow's Nest Lodge,http://www.fairhavencrowsnest.com,Fair Haven,"3 bedrooms, with full kitchen, living room, and laundry facilities located above a quaint cafe and shop in downtown Fair Haven.",43.32,-76.7,Vacation Rentals,Vacation Rentals,,"(43.32, -76.7)"
Finger Lakes,Cayuga County,The Tuthill House,http://www.thetuthillhouse.com,MORAVIA,"This beautiful Italianate style brick home is situated in a beautiful park like setting.  It is located in a sleepy little town of Moravia, NY.  This house is your home away from home.  Our rooms are large and private.  They come with a bedroom, living room, small kitchen and bathroom.",42.715253,-76.420529,B&Bs & Country Inns,B&Bs & Country Inns,,"(42.715253, -76.420529)"
Finger Lakes,Cayuga County,Tuxill House,http://www.tuxillhouse.com,AUBURN,"Off the beaten path and nestled in the heart of Auburn, NY, Tuxill House is a gracious four bedroom European-style guest house with all of the comforts of home. A serene, tranquil and “home-like” alternative to conventional lodging, Tuxill House offers accommodations for both short – and long-term stays that are peaceful, relaxed and affordable.",42.928872,-76.563735,B&Bs & Country Inns,B&Bs & Country Inns,,"(42.928872, -76.563735)"
Finger Lakes,Cayuga County,Twin Oaks Campground,,Cayuga,Located on beautiful Cayuga Lake; nearby wine trails and historic Seneca Falls and Auburn. Located within five miles of the Cayuga-Seneca Canal.,43.113533,-76.491153,Camping,Privately-owned Campgrounds,,"(43.113533, -76.491153)"
Finger Lakes,Cayuga County,Whispering Pines Inn Bed & Breakfast,,Fair Haven,This B & B has a comfy country setting. Near Fair Haven Beach State Park. Continental breakfast offered.,43.319314,-76.70005,B&Bs & Country Inns,B&Bs & Country Inns,,"(43.319314, -76.70005)"
Finger Lakes,Cayuga County,Wildwood Lakes,http://www.wildwoodlakescampsite.com,Fair Haven,Close to Fair Haven Bay. Within walking distance to State Park. Wooded Sites.,43.32,-76.7,Camping,Privately-owned Campgrounds,,"(43.32, -76.7)"
Finger Lakes,Cayuga County,Yawger Brook Family Campsites,,Auburn,"100 campsites, mostly under shade trees.",42.909725,-76.673742,Camping,Privately-owned Campgrounds,,"(42.909725, -76.673742)"
Chautauqua-Allegheny,Chautauqua County,America's Best Inns & Suites,,Jamestown,Rooms are air conditioned with non-smoking rooms available. Outdoor pool.,42.0974379,-79.275403,Hotels & Motels,Hotels & Motels,,"(42.0974379, -79.275403)"
Chautauqua-Allegheny,Chautauqua County,"Ashland, The",http://www.chautauquaguesthouse.com,Chautauqua,"Stately Victorian with porches, in the traditional Chautauqua tradition.",42.2098655,-79.4657555,B&Bs & Country Inns,B&Bs & Country Inns,,"(42.2098655, -79.4657555)"
Chautauqua-Allegheny,Chautauqua County,Athenaeum Hotel & Conference Center at Chautauqua Institution,http://www.athenaeum-hotel.com,Chautauqua,"9-wk summer season hotel; American Plan (3 meals); since 1881; Victorian ""Grande Dame"".",42.2077904,-79.4617221,Hotels & Motels,Hotels & Motels,http://fallgetaways.iloveny.com/d3k/mem/all/664/149.jpg,"(42.2077904, -79.4617221)"
Chautauqua-Allegheny,Chautauqua County,Bay Villas,,Dewittville,"Beautiful lake-front house, sleeps 6 and two fully furnished cottages, both sleep 4,  in prime fishing location.",42.229913,-79.439409,Cabins & Cottages,Cabins & Cottages,,"(42.229913, -79.439409)"
Chautauqua-Allegheny,Chautauqua County,Bella Vista Campground,http://www.bellavistacampground.com,KENNEDY,"Enjoy spacious seasonal and overnight stays with full hookups, 30-50 amp service. Clean, modern restrooms & showers, heated pool, playground, store with ice, propane, and firewood plus, a community room & pavilion. Also, horseshoe pits, and bocce court, and many planned activities.",42.1010769,-79.075305,Camping,Camping|Privately-owned Campgrounds,,"(42.1010769, -79.075305)"
Chautauqua-Allegheny,Chautauqua County,Bemus Point Lodge,http://www.bemuspointlodge.com,Bemus Point,Located within walking distance to golfing and some of the area's best restaurants.  Efficiency apartments and motel rooms. Each unit has a barbecue grill in front with a picnic table. A bonfire pit on the lake front and we supply all the wood where you can sit and relax at the end of the day and talk about the fish that got away. Boat docking included in room rate.,42.1545286,-79.3880981,Hotels & Motels,Hotels & Motels,,"(42.1545286, -79.3880981)"
Chautauqua-Allegheny,Chautauqua County,Best Western,http://www.bestwestern.com,Dunkirk,"Near Lake Erie and Dunkirk Harbor/Dunkirk Lighthouse. Health club/exercise rm, sauna, hot tub.  Pets allowed.  in-room movies and non-smoking rms avail. 24hr. hot & cold beverages; continental breakfast",42.4586709,-79.3176629,Hotels & Motels,Hotels & Motels,,"(42.4586709, -79.3176629)"
Chautauqua-Allegheny,Chautauqua County,Best Western Downtown Jamestown,http://www.bestwestern.com/downtownjamestown,Jamestown,"Downtown Jamestown's newest hotel, built in the summer of 2003, is adjacent to the JSB Ice Arena and has all the modern amenities. Expanded complimentary breakfast, indoor pool, fitness room, in-room refrigerators, Jacuzzi rooms available.",42.096009,-79.243956,Hotels & Motels,Hotels & Motels,,"(42.096009, -79.243956)"
Chautauqua-Allegheny,Chautauqua County,Big Ed's Cabins,,Mayville,"5 cabins on Chautauqua Lake, family oriented, twenty years of business. Perfect for fishermen.",42.220607,-79.483537,Cabins & Cottages,Cabins & Cottages,,"(42.220607, -79.483537)"
Chautauqua-Allegheny,Chautauqua County,Blue Heron Inn,http://www.theblueheroninn.com,Findley Lake,Charming year round lakefront B&B with a full service restaurants and shops.,42.120087,-79.735347,B&Bs & Country Inns,B&Bs & Country Inns,,"(42.120087, -79.735347)"
Chautauqua-Allegheny,Chautauqua County,Blue Water Beach Campground,http://www.bluewaterbeach.net,Westfield,"Campsite for overnight or season, located on Lake Erie with swimming and boating. Playground; Mostly wooded sights",42.3629398,-79.5390752,Camping,Privately-owned Campgrounds,,"(42.3629398, -79.5390752)"
Chautauqua-Allegheny,Chautauqua County,Brick House B & B,http://www.brickhousebnb.com,Westfield,"1840 Gothic Revival home located on the Wine Trail and the Seaway Trail. WiFi, off-street parking. Packages available.",42.355562,-79.518188,B&Bs & Country Inns,B&Bs & Country Inns,,"(42.355562, -79.518188)"
Chautauqua-Allegheny,Chautauqua County,Brookside Beach Campground,,Westfield,Family camping on the shores of Lake Erie. Private beach.,42.31,-79.57,Camping,Privately-owned Campgrounds,,"(42.31, -79.57)"
